[
  {
    "name": "Abertamy",
    "kod": "554979",
    "okres": "Karlovy Vary",
    "kod_okresu": "CZ0412",
    "kraj": "Karlovarský kraj",
    "kod_kraje": "CZ041",
    "psc": "36235",
    "lat": 50.368855,
    "lon": 12.818377
  },
  {
    "name": "Adamov",
    "kod": "535826",
    "okres": "České Budějovice",
    "kod_okresu": "CZ0311",
    "kraj": "Jihočeský kraj",
    "kod_kraje": "CZ031",
    "psc": "37371",
    "lat": 49.000624,
    "lon": 14.539603
  },
  {
    "name": "Adamov",
    "kod": "581291",
    "okres": "Blansko",
    "kod_okresu": "CZ0641",
    "kraj": "Jihomoravský kraj",
    "kod_kraje": "CZ064",
    "psc": "67904",
    "lat": 49.295708,
    "lon": 16.663955
  },
  {
    "name": "Adamov",
    "kod": "531367",
    "okres": "Kutná Hora",
    "kod_okresu": "CZ0205",
    "kraj": "Středočeský kraj",
    "kod_kraje": "CZ020",
    "psc": "28601",
    "lat": 49.857917,
    "lon": 15.409018
  },
  {
    "name": "Adršpach",
    "kod": "547786",
    "okres": "Náchod",
    "kod_okresu": "CZ0523",
    "kraj": "Královéhradecký kraj",
    "kod_kraje": "CZ052",
    "psc": "54957",
    "lat": 50.624387,
    "lon": 16.083501
  },
  {
    "name": "Albrechtice",
    "kod": "598925",
    "okres": "Karviná",
    "kod_okresu": "CZ0803",
    "kraj": "Moravskoslezský kraj",
    "kod_kraje": "CZ080",
    "psc": "73543",
    "lat": 49.786552,
    "lon": 18.524545
  },
  {
    "name": "Albrechtice",
    "kod": "547981",
    "okres": "Ústí nad Orlicí",
    "kod_okresu": "CZ0534",
    "kraj": "Pardubický kraj",
    "kod_kraje": "CZ053",
    "psc": "56301",
    "lat": 49.927643,
    "lon": 16.644801
  },
  {
    "name": "Albrechtice nad Orlicí",
    "kod": "576077",
    "okres": "Rychnov nad Kněžnou",
    "kod_okresu": "CZ0524",
    "kraj": "Královéhradecký kraj",
    "kod_kraje": "CZ052",
    "psc": "51722",
    "lat": 50.139886,
    "lon": 16.064472
  },
  {
    "name": "Albrechtice nad Vltavou",
    "kod": "549258",
    "okres": "Písek",
    "kod_okresu": "CZ0314",
    "kraj": "Jihočeský kraj",
    "kod_kraje": "CZ031",
    "psc": "39816",
    "lat": 49.253337,
    "lon": 14.302929
  },
  {
    "name": "Albrechtice v Jizerských horách",
    "kod": "563528",
    "okres": "Jablonec nad Nisou",
    "kod_okresu": "CZ0512",
    "kraj": "Liberecký kraj",
    "kod_kraje": "CZ051",
    "psc": "46843",
    "lat": 50.7624,
    "lon": 15.275813
  },
  {
    "name": "Albrechtičky",
    "kod": "568741",
    "okres": "Nový Jičín",
    "kod_okresu": "CZ0804",
    "kraj": "Moravskoslezský kraj",
    "kod_kraje": "CZ080",
    "psc": "74255",
    "lat": 49.70179,
    "lon": 18.095627
  },
  {
    "name": "Alojzov",
    "kod": "506761",
    "okres": "Prostějov",
    "kod_okresu": "CZ0713",
    "kraj": "Olomoucký kraj",
    "kod_kraje": "CZ071",
    "psc": "79804",
    "lat": 49.423541,
    "lon": 17.041589
  },
  {
    "name": "Andělská Hora",
    "kod": "538001",
    "okres": "Karlovy Vary",
    "kod_okresu": "CZ0412",
    "kraj": "Karlovarský kraj",
    "kod_kraje": "CZ041",
    "psc": "36471",
    "lat": 50.20449,
    "lon": 12.962918
  },
  {
    "name": "Andělská Hora",
    "kod": "551929",
    "okres": "Bruntál",
    "kod_okresu": "CZ0801",
    "kraj": "Moravskoslezský kraj",
    "kod_kraje": "CZ080",
    "psc": "79331",
    "lat": 50.060911,
    "lon": 17.389192
  },
  {
    "name": "Anenská Studánka",
    "kod": "573426",
    "okres": "Ústí nad Orlicí",
    "kod_okresu": "CZ0534",
    "kraj": "Pardubický kraj",
    "kod_kraje": "CZ053",
    "psc": "56301",
    "lat": 49.849856,
    "lon": 16.54033
  },
  {
    "name": "Archlebov",
    "kod": "586030",
    "okres": "Hodonín",
    "kod_okresu": "CZ0645",
    "kraj": "Jihomoravský kraj",
    "kod_kraje": "CZ064",
    "psc": "69633",
    "lat": 49.043689,
    "lon": 17.004911
  },
  {
    "name": "Arneštovice",
    "kod": "509388",
    "okres": "Pelhřimov",
    "kod_okresu": "CZ0633",
    "kraj": "Kraj Vysočina",
    "kod_kraje": "CZ063",
    "psc": "39501",
    "lat": 49.53161,
    "lon": 15.117873
  },
  {
    "name": "Arnolec",
    "kod": "586854",
    "okres": "Jihlava",
    "kod_okresu": "CZ0632",
    "kraj": "Kraj Vysočina",
    "kod_kraje": "CZ063",
    "psc": "58827",
    "lat": 49.436298,
    "lon": 15.823702
  },
  {
    "name": "Arnoltice",
    "kod": "562343",
    "okres": "Děčín",
    "kod_okresu": "CZ0421",
    "kraj": "Ústecký kraj",
    "kod_kraje": "CZ042",
    "psc": "40714",
    "lat": 50.837124,
    "lon": 14.264055
  },
  {
    "name": "Aš",
    "kod": "554499",
    "okres": "Cheb",
    "kod_okresu": "CZ0411",
    "kraj": "Karlovarský kraj",
    "kod_kraje": "CZ041",
    "psc": "35201",
    "lat": 50.223983,
    "lon": 12.195113
  },
  {
    "name": "Babice",
    "kod": "537241",
    "okres": "Prachatice",
    "kod_okresu": "CZ0315",
    "kraj": "Jihočeský kraj",
    "kod_kraje": "CZ031",
    "psc": "38411",
    "lat": 49.024865,
    "lon": 14.237677
  },
  {
    "name": "Babice",
    "kod": "590274",
    "okres": "Třebíč",
    "kod_okresu": "CZ0634",
    "kraj": "Kraj Vysočina",
    "kod_kraje": "CZ063",
    "psc": "67544",
    "lat": 49.135413,
    "lon": 15.770586
  },
  {
    "name": "Babice",
    "kod": "569828",
    "okres": "Hradec Králové",
    "kod_okresu": "CZ0521",
    "kraj": "Královéhradecký kraj",
    "kod_kraje": "CZ052",
    "psc": "50351",
    "lat": 50.192196,
    "lon": 15.585617
  },
  {
    "name": "Babice",
    "kod": "552356",
    "okres": "Olomouc",
    "kod_okresu": "CZ0712",
    "kraj": "Olomoucký kraj",
    "kod_kraje": "CZ071",
    "psc": "78501",
    "lat": 49.737929,
    "lon": 17.260966
  },
  {
    "name": "Babice",
    "kod": "538043",
    "okres": "Praha-východ",
    "kod_okresu": "CZ0209",
    "kraj": "Středočeský kraj",
    "kod_kraje": "CZ020",
    "psc": "25101",
    "lat": 50.008089,
    "lon": 14.715907
  },
  {
    "name": "Babice",
    "kod": "592013",
    "okres": "Uherské Hradiště",
    "kod_okresu": "CZ0722",
    "kraj": "Zlínský kraj",
    "kod_kraje": "CZ072",
    "psc": "68703",
    "lat": 49.123859,
    "lon": 17.476827
  },
  {
    "name": "Babice nad Svitavou",
    "kod": "582794",
    "okres": "Brno-venkov",
    "kod_okresu": "CZ0643",
    "kraj": "Jihomoravský kraj",
    "kod_kraje": "CZ064",
    "psc": "66401",
    "lat": 49.283402,
    "lon": 16.696235
  },
  {
    "name": "Babice u Rosic",
    "kod": "582808",
    "okres": "Brno-venkov",
    "kod_okresu": "CZ0643",
    "kraj": "Jihomoravský kraj",
    "kod_kraje": "CZ064",
    "psc": "66484",
    "lat": 49.173078,
    "lon": 16.358273
  },
  {
    "name": "Babylon",
    "kod": "553433",
    "okres": "Domažlice",
    "kod_okresu": "CZ0321",
    "kraj": "Plzeňský kraj",
    "kod_kraje": "CZ032",
    "psc": "34401",
    "lat": 49.398761,
    "lon": 12.862893
  },
  {
    "name": "Bakov nad Jizerou",
    "kod": "535427",
    "okres": "Mladá Boleslav",
    "kod_okresu": "CZ0207",
    "kraj": "Středočeský kraj",
    "kod_kraje": "CZ020",
    "psc": "29401",
    "lat": 50.482406,
    "lon": 14.941596
  },
  {
    "name": "Baliny",
    "kod": "595217",
    "okres": "Žďár nad Sázavou",
    "kod_okresu": "CZ0635",
    "kraj": "Kraj Vysočina",
    "kod_kraje": "CZ063",
    "psc": "59401",
    "lat": 49.332666,
    "lon": 15.952501
  },
  {
    "name": "Balkova Lhota",
    "kod": "563251",
    "okres": "Tábor",
    "kod_okresu": "CZ0317",
    "kraj": "Jihočeský kraj",
    "kod_kraje": "CZ031",
    "psc": "39131",
    "lat": 49.452124,
    "lon": 14.608319
  },
  {
    "name": "Bantice",
    "kod": "593729",
    "okres": "Znojmo",
    "kod_okresu": "CZ0647",
    "kraj": "Jihomoravský kraj",
    "kod_kraje": "CZ064",
    "psc": "67161",
    "lat": 48.883187,
    "lon": 16.182493
  },
  {
    "name": "Banín",
    "kod": "572560",
    "okres": "Svitavy",
    "kod_okresu": "CZ0533",
    "kraj": "Pardubický kraj",
    "kod_kraje": "CZ053",
    "psc": "56802",
    "lat": 49.665712,
    "lon": 16.46203
  },
  {
    "name": "Barchov",
    "kod": "569836",
    "okres": "Hradec Králové",
    "kod_okresu": "CZ0521",
    "kraj": "Královéhradecký kraj",
    "kod_kraje": "CZ052",
    "psc": "50401",
    "lat": 50.197698,
    "lon": 15.56774
  },
  {
    "name": "Barchov",
    "kod": "574724",
    "okres": "Pardubice",
    "kod_okresu": "CZ0532",
    "kraj": "Pardubický kraj",
    "kod_kraje": "CZ053",
    "psc": "53002",
    "lat": 49.999411,
    "lon": 15.68091
  },
  {
    "name": "Barchovice",
    "kod": "533173",
    "okres": "Kolín",
    "kod_okresu": "CZ0204",
    "kraj": "Středočeský kraj",
    "kod_kraje": "CZ020",
    "psc": "28163",
    "lat": 49.944355,
    "lon": 14.969206
  },
  {
    "name": "Bartoušov",
    "kod": "548260",
    "okres": "Havlíčkův Brod",
    "kod_okresu": "CZ0631",
    "kraj": "Kraj Vysočina",
    "kod_kraje": "CZ063",
    "psc": "58001",
    "lat": 49.601128,
    "lon": 15.618547
  },
  {
    "name": "Bartošovice",
    "kod": "599212",
    "okres": "Nový Jičín",
    "kod_okresu": "CZ0804",
    "kraj": "Moravskoslezský kraj",
    "kod_kraje": "CZ080",
    "psc": "74254",
    "lat": 49.66894,
    "lon": 18.054715
  },
  {
    "name": "Bartošovice v Orlických horách",
    "kod": "576093",
    "okres": "Rychnov nad Kněžnou",
    "kod_okresu": "CZ0524",
    "kraj": "Královéhradecký kraj",
    "kod_kraje": "CZ052",
    "psc": "51761",
    "lat": 50.16408,
    "lon": 16.547862
  },
  {
    "name": "Batelov",
    "kod": "586862",
    "okres": "Jihlava",
    "kod_okresu": "CZ0632",
    "kraj": "Kraj Vysočina",
    "kod_kraje": "CZ063",
    "psc": "58851",
    "lat": 49.290179,
    "lon": 15.410734
  },
  {
    "name": "Batňovice",
    "kod": "579041",
    "okres": "Trutnov",
    "kod_okresu": "CZ0525",
    "kraj": "Královéhradecký kraj",
    "kod_kraje": "CZ052",
    "psc": "54237",
    "lat": 50.517692,
    "lon": 16.03674
  },
  {
    "name": "Bavorov",
    "kod": "550809",
    "okres": "Strakonice",
    "kod_okresu": "CZ0316",
    "kraj": "Jihočeský kraj",
    "kod_kraje": "CZ031",
    "psc": "38773",
    "lat": 49.121951,
    "lon": 14.079028
  },
  {
    "name": "Bavory",
    "kod": "584304",
    "okres": "Břeclav",
    "kod_okresu": "CZ0644",
    "kraj": "Jihomoravský kraj",
    "kod_kraje": "CZ064",
    "psc": "69201",
    "lat": 48.834789,
    "lon": 16.622349
  },
  {
    "name": "Bavoryně",
    "kod": "534421",
    "okres": "Beroun",
    "kod_okresu": "CZ0202",
    "kraj": "Středočeský kraj",
    "kod_kraje": "CZ020",
    "psc": "26751",
    "lat": 49.895907,
    "lon": 13.961126
  },
  {
    "name": "Bačalky",
    "kod": "553701",
    "okres": "Jičín",
    "kod_okresu": "CZ0522",
    "kraj": "Královéhradecký kraj",
    "kod_kraje": "CZ052",
    "psc": "50723",
    "lat": 50.385047,
    "lon": 15.15353
  },
  {
    "name": "Bačetín",
    "kod": "576085",
    "okres": "Rychnov nad Kněžnou",
    "kod_okresu": "CZ0524",
    "kraj": "Královéhradecký kraj",
    "kod_kraje": "CZ052",
    "psc": "51801",
    "lat": 50.299877,
    "lon": 16.233416
  },
  {
    "name": "Bačice",
    "kod": "590282",
    "okres": "Třebíč",
    "kod_okresu": "CZ0634",
    "kraj": "Kraj Vysočina",
    "kod_kraje": "CZ063",
    "psc": "67555",
    "lat": 49.081736,
    "lon": 16.027802
  },
  {
    "name": "Bačkov",
    "kod": "546194",
    "okres": "Havlíčkův Brod",
    "kod_okresu": "CZ0631",
    "kraj": "Kraj Vysočina",
    "kod_kraje": "CZ063",
    "psc": "58291",
    "lat": 49.735384,
    "lon": 15.462118
  },
  {
    "name": "Bačkovice",
    "kod": "544833",
    "okres": "Třebíč",
    "kod_okresu": "CZ0634",
    "kraj": "Kraj Vysočina",
    "kod_kraje": "CZ063",
    "psc": "67532",
    "lat": 48.965699,
    "lon": 15.589
  },
  {
    "name": "Bařice-Velké Těšany",
    "kod": "588300",
    "okres": "Kroměříž",
    "kod_okresu": "CZ0721",
    "kraj": "Zlínský kraj",
    "kod_kraje": "CZ072",
    "psc": "76701",
    "lat": 49.245527,
    "lon": 17.426201
  },
  {
    "name": "Baška",
    "kod": "598011",
    "okres": "Frýdek-Místek",
    "kod_okresu": "CZ0802",
    "kraj": "Moravskoslezský kraj",
    "kod_kraje": "CZ080",
    "psc": "73901",
    "lat": 49.645943,
    "lon": 18.372443
  },
  {
    "name": "Bašnice",
    "kod": "572667",
    "okres": "Jičín",
    "kod_okresu": "CZ0522",
    "kraj": "Královéhradecký kraj",
    "kod_kraje": "CZ052",
    "psc": "50801",
    "lat": 50.334576,
    "lon": 15.605129
  },
  {
    "name": "Bašť",
    "kod": "538051",
    "okres": "Praha-východ",
    "kod_okresu": "CZ0209",
    "kraj": "Středočeský kraj",
    "kod_kraje": "CZ020",
    "psc": "25065",
    "lat": 50.205242,
    "lon": 14.477405
  },
  {
    "name": "Bdeněves",
    "kod": "566756",
    "okres": "Plzeň-sever",
    "kod_okresu": "CZ0325",
    "kraj": "Plzeňský kraj",
    "kod_kraje": "CZ032",
    "psc": "33032",
    "lat": 49.76964,
    "lon": 13.235291
  },
  {
    "name": "Bdín",
    "kod": "565423",
    "okres": "Rakovník",
    "kod_okresu": "CZ020C",
    "kraj": "Středočeský kraj",
    "kod_kraje": "CZ020",
    "psc": "27054",
    "lat": 50.214245,
    "lon": 13.858851
  },
  {
    "name": "Bechlín",
    "kod": "564575",
    "okres": "Litoměřice",
    "kod_okresu": "CZ0423",
    "kraj": "Ústecký kraj",
    "kod_kraje": "CZ042",
    "psc": "41186",
    "lat": 50.416252,
    "lon": 14.341026
  },
  {
    "name": "Bechyně",
    "kod": "552054",
    "okres": "Tábor",
    "kod_okresu": "CZ0317",
    "kraj": "Jihočeský kraj",
    "kod_kraje": "CZ031",
    "psc": "39165",
    "lat": 49.295336,
    "lon": 14.468202
  },
  {
    "name": "Bedihošť",
    "kod": "589268",
    "okres": "Prostějov",
    "kod_okresu": "CZ0713",
    "kraj": "Olomoucký kraj",
    "kod_kraje": "CZ071",
    "psc": "79821",
    "lat": 49.448359,
    "lon": 17.166534
  },
  {
    "name": "Bednárec",
    "kod": "562548",
    "okres": "Jindřichův Hradec",
    "kod_okresu": "CZ0313",
    "kraj": "Jihočeský kraj",
    "kod_kraje": "CZ031",
    "psc": "37842",
    "lat": 49.195339,
    "lon": 15.093296
  },
  {
    "name": "Bednáreček",
    "kod": "561053",
    "okres": "Jindřichův Hradec",
    "kod_okresu": "CZ0313",
    "kraj": "Jihočeský kraj",
    "kod_kraje": "CZ031",
    "psc": "37842",
    "lat": 49.210179,
    "lon": 15.144034
  },
  {
    "name": "Bedřichov",
    "kod": "581313",
    "okres": "Blansko",
    "kod_okresu": "CZ0641",
    "kraj": "Jihomoravský kraj",
    "kod_kraje": "CZ064",
    "psc": "67971",
    "lat": 49.461276,
    "lon": 16.465422
  },
  {
    "name": "Bedřichov",
    "kod": "563536",
    "okres": "Jablonec nad Nisou",
    "kod_okresu": "CZ0512",
    "kraj": "Liberecký kraj",
    "kod_kraje": "CZ051",
    "psc": "46812",
    "lat": 50.791188,
    "lon": 15.142571
  },
  {
    "name": "Benecko",
    "kod": "576981",
    "okres": "Semily",
    "kod_okresu": "CZ0514",
    "kraj": "Liberecký kraj",
    "kod_kraje": "CZ051",
    "psc": "51237",
    "lat": 50.666433,
    "lon": 15.548272
  },
  {
    "name": "Benetice",
    "kod": "590304",
    "okres": "Třebíč",
    "kod_okresu": "CZ0634",
    "kraj": "Kraj Vysočina",
    "kod_kraje": "CZ063",
    "psc": "67506",
    "lat": 49.297738,
    "lon": 15.867436
  },
  {
    "name": "Benešov",
    "kod": "581330",
    "okres": "Blansko",
    "kod_okresu": "CZ0641",
    "kraj": "Jihomoravský kraj",
    "kod_kraje": "CZ064",
    "psc": "67953",
    "lat": 49.509531,
    "lon": 16.770698
  },
  {
    "name": "Benešov",
    "kod": "529303",
    "okres": "Benešov",
    "kod_okresu": "CZ0201",
    "kraj": "Středočeský kraj",
    "kod_kraje": "CZ020",
    "psc": "25601",
    "lat": 49.783882,
    "lon": 14.68747
  },
  {
    "name": "Benešov nad Ploučnicí",
    "kod": "562351",
    "okres": "Děčín",
    "kod_okresu": "CZ0421",
    "kraj": "Ústecký kraj",
    "kod_kraje": "CZ042",
    "psc": "40722",
    "lat": 50.741692,
    "lon": 14.3125
  },
  {
    "name": "Benešov nad Černou",
    "kod": "545406",
    "okres": "Český Krumlov",
    "kod_okresu": "CZ0312",
    "kraj": "Jihočeský kraj",
    "kod_kraje": "CZ031",
    "psc": "38282",
    "lat": 48.729507,
    "lon": 14.627471
  },
  {
    "name": "Benešov u Semil",
    "kod": "576999",
    "okres": "Semily",
    "kod_okresu": "CZ0514",
    "kraj": "Liberecký kraj",
    "kod_kraje": "CZ051",
    "psc": "51206",
    "lat": 50.603258,
    "lon": 15.368478
  },
  {
    "name": "Benešovice",
    "kod": "560723",
    "okres": "Tachov",
    "kod_okresu": "CZ0327",
    "kraj": "Plzeňský kraj",
    "kod_kraje": "CZ032",
    "psc": "34901",
    "lat": 49.726964,
    "lon": 12.901799
  },
  {
    "name": "Benátky",
    "kod": "569861",
    "okres": "Hradec Králové",
    "kod_okresu": "CZ0521",
    "kraj": "Královéhradecký kraj",
    "kod_kraje": "CZ052",
    "psc": "50303",
    "lat": 50.310292,
    "lon": 15.736096
  },
  {
    "name": "Benátky",
    "kod": "577774",
    "okres": "Svitavy",
    "kod_okresu": "CZ0533",
    "kraj": "Pardubický kraj",
    "kod_kraje": "CZ053",
    "psc": "57001",
    "lat": 49.854287,
    "lon": 16.326847
  },
  {
    "name": "Benátky nad Jizerou",
    "kod": "535451",
    "okres": "Mladá Boleslav",
    "kod_okresu": "CZ0207",
    "kraj": "Středočeský kraj",
    "kod_kraje": "CZ020",
    "psc": "29471",
    "lat": 50.289261,
    "lon": 14.824612
  },
  {
    "name": "Bernardov",
    "kod": "531111",
    "okres": "Kutná Hora",
    "kod_okresu": "CZ0205",
    "kraj": "Středočeský kraj",
    "kod_kraje": "CZ020",
    "psc": "28401",
    "lat": 50.014231,
    "lon": 15.398668
  },
  {
    "name": "Bernartice",
    "kod": "549266",
    "okres": "Písek",
    "kod_okresu": "CZ0314",
    "kraj": "Jihočeský kraj",
    "kod_kraje": "CZ031",
    "psc": "39843",
    "lat": 49.368999,
    "lon": 14.381118
  },
  {
    "name": "Bernartice",
    "kod": "579050",
    "okres": "Trutnov",
    "kod_okresu": "CZ0525",
    "kraj": "Královéhradecký kraj",
    "kod_kraje": "CZ052",
    "psc": "54204",
    "lat": 50.644783,
    "lon": 15.965926
  },
  {
    "name": "Bernartice",
    "kod": "524891",
    "okres": "Jeseník",
    "kod_okresu": "CZ0711",
    "kraj": "Olomoucký kraj",
    "kod_kraje": "CZ071",
    "psc": "79057",
    "lat": 50.389907,
    "lon": 17.078379
  },
  {
    "name": "Bernartice",
    "kod": "532568",
    "okres": "Benešov",
    "kod_okresu": "CZ0201",
    "kraj": "Středočeský kraj",
    "kod_kraje": "CZ020",
    "psc": "25765",
    "lat": 49.675666,
    "lon": 15.129249
  },
  {
    "name": "Bernartice nad Odrou",
    "kod": "568481",
    "okres": "Nový Jičín",
    "kod_okresu": "CZ0804",
    "kraj": "Moravskoslezský kraj",
    "kod_kraje": "CZ080",
    "psc": "74101",
    "lat": 49.610207,
    "lon": 17.947885
  },
  {
    "name": "Beroun",
    "kod": "531057",
    "okres": "Beroun",
    "kod_okresu": "CZ0202",
    "kraj": "Středočeský kraj",
    "kod_kraje": "CZ020",
    "psc": "26601",
    "lat": 49.967305,
    "lon": 14.086384
  },
  {
    "name": "Besednice",
    "kod": "545414",
    "okres": "Český Krumlov",
    "kod_okresu": "CZ0312",
    "kraj": "Jihočeský kraj",
    "kod_kraje": "CZ031",
    "psc": "38281",
    "lat": 48.790089,
    "lon": 14.556987
  },
  {
    "name": "Bezdružice",
    "kod": "560740",
    "okres": "Tachov",
    "kod_okresu": "CZ0327",
    "kraj": "Plzeňský kraj",
    "kod_kraje": "CZ032",
    "psc": "34953",
    "lat": 49.906771,
    "lon": 12.971351
  },
  {
    "name": "Bezdědovice",
    "kod": "598895",
    "okres": "Strakonice",
    "kod_okresu": "CZ0316",
    "kraj": "Jihočeský kraj",
    "kod_kraje": "CZ031",
    "psc": "38801",
    "lat": 49.444294,
    "lon": 13.880068
  },
  {
    "name": "Bezděkov",
    "kod": "548430",
    "okres": "Havlíčkův Brod",
    "kod_okresu": "CZ0631",
    "kraj": "Kraj Vysočina",
    "kod_kraje": "CZ063",
    "psc": "58301",
    "lat": 49.732931,
    "lon": 15.730501
  },
  {
    "name": "Bezděkov",
    "kod": "574741",
    "okres": "Pardubice",
    "kod_okresu": "CZ0532",
    "kraj": "Pardubický kraj",
    "kod_kraje": "CZ053",
    "psc": "53501",
    "lat": 50.008869,
    "lon": 15.644768
  },
  {
    "name": "Bezděkov",
    "kod": "555801",
    "okres": "Klatovy",
    "kod_okresu": "CZ0322",
    "kraj": "Plzeňský kraj",
    "kod_kraje": "CZ032",
    "psc": "33901",
    "lat": 49.3795,
    "lon": 13.297971
  },
  {
    "name": "Bezděkov",
    "kod": "541095",
    "okres": "Rokycany",
    "kod_okresu": "CZ0326",
    "kraj": "Plzeňský kraj",
    "kod_kraje": "CZ032",
    "psc": "33824",
    "lat": 49.824389,
    "lon": 13.596645
  },
  {
    "name": "Bezděkov nad Metují",
    "kod": "573884",
    "okres": "Náchod",
    "kod_okresu": "CZ0523",
    "kraj": "Královéhradecký kraj",
    "kod_kraje": "CZ052",
    "psc": "54964",
    "lat": 50.509838,
    "lon": 16.229341
  },
  {
    "name": "Bezděkov pod Třemšínem",
    "kod": "529672",
    "okres": "Příbram",
    "kod_okresu": "CZ020B",
    "kraj": "Středočeský kraj",
    "kod_kraje": "CZ020",
    "psc": "26242",
    "lat": 49.577203,
    "lon": 13.878564
  },
  {
    "name": "Bezděz",
    "kod": "561398",
    "okres": "Česká Lípa",
    "kod_okresu": "CZ0511",
    "kraj": "Liberecký kraj",
    "kod_kraje": "CZ051",
    "psc": "47201",
    "lat": 50.533742,
    "lon": 14.722084
  },
  {
    "name": "Bezděčí u Trnávky",
    "kod": "574309",
    "okres": "Svitavy",
    "kod_okresu": "CZ0533",
    "kraj": "Pardubický kraj",
    "kod_kraje": "CZ053",
    "psc": "56943",
    "lat": 49.692503,
    "lon": 16.763539
  },
  {
    "name": "Bezkov",
    "kod": "593745",
    "okres": "Znojmo",
    "kod_okresu": "CZ0647",
    "kraj": "Jihomoravský kraj",
    "kod_kraje": "CZ064",
    "psc": "66902",
    "lat": 48.871321,
    "lon": 15.951352
  },
  {
    "name": "Bezměrov",
    "kod": "588326",
    "okres": "Kroměříž",
    "kod_okresu": "CZ0721",
    "kraj": "Zlínský kraj",
    "kod_kraje": "CZ072",
    "psc": "76701",
    "lat": 49.329903,
    "lon": 17.334894
  },
  {
    "name": "Bezno",
    "kod": "535478",
    "okres": "Mladá Boleslav",
    "kod_okresu": "CZ0207",
    "kraj": "Středočeský kraj",
    "kod_kraje": "CZ020",
    "psc": "29429",
    "lat": 50.367388,
    "lon": 14.795726
  },
  {
    "name": "Bezuchov",
    "kod": "512401",
    "okres": "Přerov",
    "kod_okresu": "CZ0714",
    "kraj": "Olomoucký kraj",
    "kod_kraje": "CZ071",
    "psc": "75354",
    "lat": 49.462827,
    "lon": 17.608881
  },
  {
    "name": "Bezvěrov",
    "kod": "558656",
    "okres": "Plzeň-sever",
    "kod_okresu": "CZ0325",
    "kraj": "Plzeňský kraj",
    "kod_kraje": "CZ032",
    "psc": "33041",
    "lat": 49.995118,
    "lon": 13.059113
  },
  {
    "name": "Bečice",
    "kod": "536156",
    "okres": "České Budějovice",
    "kod_okresu": "CZ0311",
    "kraj": "Jihočeský kraj",
    "kod_kraje": "CZ031",
    "psc": "37501",
    "lat": 49.215784,
    "lon": 14.501318
  },
  {
    "name": "Bečice",
    "kod": "563366",
    "okres": "Tábor",
    "kod_okresu": "CZ0317",
    "kraj": "Jihočeský kraj",
    "kod_kraje": "CZ031",
    "psc": "39175",
    "lat": 49.381437,
    "lon": 14.539787
  },
  {
    "name": "Bečov",
    "kod": "567043",
    "okres": "Most",
    "kod_okresu": "CZ0425",
    "kraj": "Ústecký kraj",
    "kod_kraje": "CZ042",
    "psc": "43526",
    "lat": 50.449824,
    "lon": 13.717955
  },
  {
    "name": "Bečov nad Teplou",
    "kod": "554995",
    "okres": "Karlovy Vary",
    "kod_okresu": "CZ0412",
    "kraj": "Karlovarský kraj",
    "kod_kraje": "CZ041",
    "psc": "36464",
    "lat": 50.083561,
    "lon": 12.838429
  },
  {
    "name": "Bečváry",
    "kod": "533181",
    "okres": "Kolín",
    "kod_okresu": "CZ0204",
    "kraj": "Středočeský kraj",
    "kod_kraje": "CZ020",
    "psc": "28143",
    "lat": 49.956809,
    "lon": 15.079916
  },
  {
    "name": "Beňov",
    "kod": "512281",
    "okres": "Přerov",
    "kod_okresu": "CZ0714",
    "kraj": "Olomoucký kraj",
    "kod_kraje": "CZ071",
    "psc": "75002",
    "lat": 49.41746,
    "lon": 17.501452
  },
  {
    "name": "Beřovice",
    "kod": "532088",
    "okres": "Kladno",
    "kod_okresu": "CZ0203",
    "kraj": "Středočeský kraj",
    "kod_kraje": "CZ020",
    "psc": "27371",
    "lat": 50.269119,
    "lon": 14.12366
  },
  {
    "name": "Biskoupky",
    "kod": "582832",
    "okres": "Brno-venkov",
    "kod_okresu": "CZ0643",
    "kraj": "Jihomoravský kraj",
    "kod_kraje": "CZ064",
    "psc": "66491",
    "lat": 49.097789,
    "lon": 16.281386
  },
  {
    "name": "Biskupice",
    "kod": "589284",
    "okres": "Prostějov",
    "kod_okresu": "CZ0713",
    "kraj": "Olomoucký kraj",
    "kod_kraje": "CZ071",
    "psc": "79812",
    "lat": 49.459774,
    "lon": 17.236699
  },
  {
    "name": "Biskupice",
    "kod": "573949",
    "okres": "Chrudim",
    "kod_okresu": "CZ0531",
    "kraj": "Pardubický kraj",
    "kod_kraje": "CZ053",
    "psc": "53843",
    "lat": 49.872861,
    "lon": 15.512907
  },
  {
    "name": "Biskupice",
    "kod": "572519",
    "okres": "Svitavy",
    "kod_okresu": "CZ0533",
    "kraj": "Pardubický kraj",
    "kod_kraje": "CZ053",
    "psc": "56943",
    "lat": 49.647572,
    "lon": 16.758148
  },
  {
    "name": "Biskupice",
    "kod": "585076",
    "okres": "Zlín",
    "kod_okresu": "CZ0724",
    "kraj": "Zlínský kraj",
    "kod_kraje": "CZ072",
    "psc": "76341",
    "lat": 49.083208,
    "lon": 17.710527
  },
  {
    "name": "Biskupice-Pulkov",
    "kod": "590312",
    "okres": "Třebíč",
    "kod_okresu": "CZ0634",
    "kraj": "Kraj Vysočina",
    "kod_kraje": "CZ063",
    "psc": "67558",
    "lat": 49.038255,
    "lon": 16.009555
  },
  {
    "name": "Bitozeves",
    "kod": "565997",
    "okres": "Louny",
    "kod_okresu": "CZ0424",
    "kraj": "Ústecký kraj",
    "kod_kraje": "CZ042",
    "psc": "44001",
    "lat": 50.37326,
    "lon": 13.640793
  },
  {
    "name": "Biřkov",
    "kod": "578088",
    "okres": "Klatovy",
    "kod_okresu": "CZ0322",
    "kraj": "Plzeňský kraj",
    "kod_kraje": "CZ032",
    "psc": "33401",
    "lat": 49.518156,
    "lon": 13.230256
  },
  {
    "name": "Blanné",
    "kod": "593761",
    "okres": "Znojmo",
    "kod_okresu": "CZ0647",
    "kraj": "Jihomoravský kraj",
    "kod_kraje": "CZ064",
    "psc": "67154",
    "lat": 48.992037,
    "lon": 15.883346
  },
  {
    "name": "Blansko",
    "kod": "581283",
    "okres": "Blansko",
    "kod_okresu": "CZ0641",
    "kraj": "Jihomoravský kraj",
    "kod_kraje": "CZ064",
    "psc": "67801",
    "lat": 49.36495,
    "lon": 16.647855
  },
  {
    "name": "Blatce",
    "kod": "561401",
    "okres": "Česká Lípa",
    "kod_okresu": "CZ0511",
    "kraj": "Liberecký kraj",
    "kod_kraje": "CZ051",
    "psc": "47201",
    "lat": 50.502986,
    "lon": 14.603251
  },
  {
    "name": "Blatec",
    "kod": "500801",
    "okres": "Olomouc",
    "kod_okresu": "CZ0712",
    "kraj": "Olomoucký kraj",
    "kod_kraje": "CZ071",
    "psc": "78375",
    "lat": 49.528444,
    "lon": 17.238673
  },
  {
    "name": "Blatnice",
    "kod": "590321",
    "okres": "Třebíč",
    "kod_okresu": "CZ0634",
    "kraj": "Kraj Vysočina",
    "kod_kraje": "CZ063",
    "psc": "67551",
    "lat": 49.070235,
    "lon": 15.871431
  },
  {
    "name": "Blatnice",
    "kod": "558672",
    "okres": "Plzeň-sever",
    "kod_okresu": "CZ0325",
    "kraj": "Plzeňský kraj",
    "kod_kraje": "CZ032",
    "psc": "33025",
    "lat": 49.719824,
    "lon": 13.156096
  },
  {
    "name": "Blatnice pod Svatým Antonínkem",
    "kod": "586048",
    "okres": "Hodonín",
    "kod_okresu": "CZ0645",
    "kraj": "Jihomoravský kraj",
    "kod_kraje": "CZ064",
    "psc": "69671",
    "lat": 48.946824,
    "lon": 17.466069
  },
  {
    "name": "Blatnička",
    "kod": "586056",
    "okres": "Hodonín",
    "kod_okresu": "CZ0645",
    "kraj": "Jihomoravský kraj",
    "kod_kraje": "CZ064",
    "psc": "69671",
    "lat": 48.935609,
    "lon": 17.530151
  },
  {
    "name": "Blatno",
    "kod": "562998",
    "okres": "Chomutov",
    "kod_okresu": "CZ0422",
    "kraj": "Ústecký kraj",
    "kod_kraje": "CZ042",
    "psc": "43001",
    "lat": 50.511799,
    "lon": 13.358172
  },
  {
    "name": "Blatno",
    "kod": "566004",
    "okres": "Louny",
    "kod_okresu": "CZ0424",
    "kraj": "Ústecký kraj",
    "kod_kraje": "CZ042",
    "psc": "43984",
    "lat": 50.097026,
    "lon": 13.389809
  },
  {
    "name": "Blatná",
    "kod": "550850",
    "okres": "Strakonice",
    "kod_okresu": "CZ0316",
    "kraj": "Jihočeský kraj",
    "kod_kraje": "CZ031",
    "psc": "38801",
    "lat": 49.424993,
    "lon": 13.881864
  },
  {
    "name": "Blazice",
    "kod": "542318",
    "okres": "Kroměříž",
    "kod_okresu": "CZ0721",
    "kraj": "Zlínský kraj",
    "kod_kraje": "CZ072",
    "psc": "76861",
    "lat": 49.44257,
    "lon": 17.645401
  },
  {
    "name": "Blažejov",
    "kod": "561711",
    "okres": "Jindřichův Hradec",
    "kod_okresu": "CZ0313",
    "kraj": "Jihočeský kraj",
    "kod_kraje": "CZ031",
    "psc": "37852",
    "lat": 49.142295,
    "lon": 15.096553
  },
  {
    "name": "Blažejovice",
    "kod": "532380",
    "okres": "Benešov",
    "kod_okresu": "CZ0201",
    "kraj": "Středočeský kraj",
    "kod_kraje": "CZ020",
    "psc": "25768",
    "lat": 49.619897,
    "lon": 15.200036
  },
  {
    "name": "Blažim",
    "kod": "566764",
    "okres": "Plzeň-sever",
    "kod_okresu": "CZ0325",
    "kraj": "Plzeňský kraj",
    "kod_kraje": "CZ032",
    "psc": "33038",
    "lat": 49.916024,
    "lon": 13.047724
  },
  {
    "name": "Blažim",
    "kod": "566012",
    "okres": "Louny",
    "kod_okresu": "CZ0424",
    "kraj": "Ústecký kraj",
    "kod_kraje": "CZ042",
    "psc": "44001",
    "lat": 50.40695,
    "lon": 13.628683
  },
  {
    "name": "Blažkov",
    "kod": "595241",
    "okres": "Žďár nad Sázavou",
    "kod_okresu": "CZ0635",
    "kraj": "Kraj Vysočina",
    "kod_kraje": "CZ063",
    "psc": "59251",
    "lat": 49.473174,
    "lon": 16.185267
  },
  {
    "name": "Blažovice",
    "kod": "582841",
    "okres": "Brno-venkov",
    "kod_okresu": "CZ0643",
    "kraj": "Jihomoravský kraj",
    "kod_kraje": "CZ064",
    "psc": "66408",
    "lat": 49.165785,
    "lon": 16.786216
  },
  {
    "name": "Blevice",
    "kod": "532100",
    "okres": "Kladno",
    "kod_okresu": "CZ0203",
    "kraj": "Středočeský kraj",
    "kod_kraje": "CZ020",
    "psc": "27328",
    "lat": 50.209825,
    "lon": 14.236267
  },
  {
    "name": "Blešno",
    "kod": "569879",
    "okres": "Hradec Králové",
    "kod_okresu": "CZ0521",
    "kraj": "Královéhradecký kraj",
    "kod_kraje": "CZ052",
    "psc": "50346",
    "lat": 50.214011,
    "lon": 15.930746
  },
  {
    "name": "Blovice",
    "kod": "557587",
    "okres": "Plzeň-jih",
    "kod_okresu": "CZ0324",
    "kraj": "Plzeňský kraj",
    "kod_kraje": "CZ032",
    "psc": "33601",
    "lat": 49.582303,
    "lon": 13.540199
  },
  {
    "name": "Bludov",
    "kod": "525588",
    "okres": "Šumperk",
    "kod_okresu": "CZ0715",
    "kraj": "Olomoucký kraj",
    "kod_kraje": "CZ071",
    "psc": "78961",
    "lat": 49.941116,
    "lon": 16.928111
  },
  {
    "name": "Bludov",
    "kod": "530964",
    "okres": "Kutná Hora",
    "kod_okresu": "CZ0205",
    "kraj": "Středočeský kraj",
    "kod_kraje": "CZ020",
    "psc": "28601",
    "lat": 49.807592,
    "lon": 15.255286
  },
  {
    "name": "Blučina",
    "kod": "582859",
    "okres": "Brno-venkov",
    "kod_okresu": "CZ0643",
    "kraj": "Jihomoravský kraj",
    "kod_kraje": "CZ064",
    "psc": "66456",
    "lat": 49.055066,
    "lon": 16.644601
  },
  {
    "name": "Blízkov",
    "kod": "595250",
    "okres": "Žďár nad Sázavou",
    "kod_okresu": "CZ0635",
    "kraj": "Kraj Vysočina",
    "kod_kraje": "CZ063",
    "psc": "59442",
    "lat": 49.400584,
    "lon": 15.90881
  },
  {
    "name": "Blížejov",
    "kod": "553450",
    "okres": "Domažlice",
    "kod_okresu": "CZ0321",
    "kraj": "Plzeňský kraj",
    "kod_kraje": "CZ032",
    "psc": "34545",
    "lat": 49.500115,
    "lon": 12.989366
  },
  {
    "name": "Blíževedly",
    "kod": "561410",
    "okres": "Česká Lípa",
    "kod_okresu": "CZ0511",
    "kraj": "Liberecký kraj",
    "kod_kraje": "CZ051",
    "psc": "47104",
    "lat": 50.608503,
    "lon": 14.396598
  },
  {
    "name": "Blížkovice",
    "kod": "593770",
    "okres": "Znojmo",
    "kod_okresu": "CZ0647",
    "kraj": "Jihomoravský kraj",
    "kod_kraje": "CZ064",
    "psc": "67155",
    "lat": 48.999862,
    "lon": 15.834918
  },
  {
    "name": "Blšany",
    "kod": "566021",
    "okres": "Louny",
    "kod_okresu": "CZ0424",
    "kraj": "Ústecký kraj",
    "kod_kraje": "CZ042",
    "psc": "43988",
    "lat": 50.217441,
    "lon": 13.471313
  },
  {
    "name": "Blšany u Loun",
    "kod": "542547",
    "okres": "Louny",
    "kod_okresu": "CZ0424",
    "kraj": "Ústecký kraj",
    "kod_kraje": "CZ042",
    "psc": "44001",
    "lat": 50.347086,
    "lon": 13.852757
  },
  {
    "name": "Bobnice",
    "kod": "537039",
    "okres": "Nymburk",
    "kod_okresu": "CZ0208",
    "kraj": "Středočeský kraj",
    "kod_kraje": "CZ020",
    "psc": "28931",
    "lat": 50.219681,
    "lon": 15.053622
  },
  {
    "name": "Bobrová",
    "kod": "595268",
    "okres": "Žďár nad Sázavou",
    "kod_okresu": "CZ0635",
    "kraj": "Kraj Vysočina",
    "kod_kraje": "CZ063",
    "psc": "59255",
    "lat": 49.482402,
    "lon": 16.118399
  },
  {
    "name": "Bobrůvka",
    "kod": "595276",
    "okres": "Žďár nad Sázavou",
    "kod_okresu": "CZ0635",
    "kraj": "Kraj Vysočina",
    "kod_kraje": "CZ063",
    "psc": "59255",
    "lat": 49.44874,
    "lon": 16.093912
  },
  {
    "name": "Bocanovice",
    "kod": "511633",
    "okres": "Frýdek-Místek",
    "kod_okresu": "CZ0802",
    "kraj": "Moravskoslezský kraj",
    "kod_kraje": "CZ080",
    "psc": "73991",
    "lat": 49.569174,
    "lon": 18.738514
  },
  {
    "name": "Bochov",
    "kod": "555029",
    "okres": "Karlovy Vary",
    "kod_okresu": "CZ0412",
    "kraj": "Karlovarský kraj",
    "kod_kraje": "CZ041",
    "psc": "36471",
    "lat": 50.151007,
    "lon": 13.045282
  },
  {
    "name": "Bochovice",
    "kod": "590347",
    "okres": "Třebíč",
    "kod_okresu": "CZ0634",
    "kraj": "Kraj Vysočina",
    "kod_kraje": "CZ063",
    "psc": "67505",
    "lat": 49.320924,
    "lon": 15.896424
  },
  {
    "name": "Bochoř",
    "kod": "512532",
    "okres": "Přerov",
    "kod_okresu": "CZ0714",
    "kraj": "Olomoucký kraj",
    "kod_kraje": "CZ071",
    "psc": "75002",
    "lat": 49.421475,
    "lon": 17.428459
  },
  {
    "name": "Boharyně",
    "kod": "569887",
    "okres": "Hradec Králové",
    "kod_okresu": "CZ0521",
    "kraj": "Královéhradecký kraj",
    "kod_kraje": "CZ052",
    "psc": "50323",
    "lat": 50.203911,
    "lon": 15.630961
  },
  {
    "name": "Bohatice",
    "kod": "561428",
    "okres": "Česká Lípa",
    "kod_okresu": "CZ0511",
    "kraj": "Liberecký kraj",
    "kod_kraje": "CZ051",
    "psc": "47002",
    "lat": 50.669033,
    "lon": 14.679426
  },
  {
    "name": "Bohaté Málkovice",
    "kod": "592897",
    "okres": "Vyškov",
    "kod_okresu": "CZ0646",
    "kraj": "Jihomoravský kraj",
    "kod_kraje": "CZ064",
    "psc": "68501",
    "lat": 49.189126,
    "lon": 17.014284
  },
  {
    "name": "Bohdalec",
    "kod": "595284",
    "okres": "Žďár nad Sázavou",
    "kod_okresu": "CZ0635",
    "kraj": "Kraj Vysočina",
    "kod_kraje": "CZ063",
    "psc": "59255",
    "lat": 49.474379,
    "lon": 16.05987
  },
  {
    "name": "Bohdalice-Pavlovice",
    "kod": "592901",
    "okres": "Vyškov",
    "kod_okresu": "CZ0646",
    "kraj": "Jihomoravský kraj",
    "kod_kraje": "CZ064",
    "psc": "68341",
    "lat": 49.214143,
    "lon": 17.030228
  },
  {
    "name": "Bohdalov",
    "kod": "595292",
    "okres": "Žďár nad Sázavou",
    "kod_okresu": "CZ0635",
    "kraj": "Kraj Vysočina",
    "kod_kraje": "CZ063",
    "psc": "59213",
    "lat": 49.480764,
    "lon": 15.876542
  },
  {
    "name": "Bohdalovice",
    "kod": "536253",
    "okres": "Český Krumlov",
    "kod_okresu": "CZ0312",
    "kraj": "Jihočeský kraj",
    "kod_kraje": "CZ031",
    "psc": "38101",
    "lat": 48.74294,
    "lon": 14.286864
  },
  {
    "name": "Bohdalín",
    "kod": "547549",
    "okres": "Pelhřimov",
    "kod_okresu": "CZ0633",
    "kraj": "Kraj Vysočina",
    "kod_kraje": "CZ063",
    "psc": "39491",
    "lat": 49.307781,
    "lon": 15.015943
  },
  {
    "name": "Bohdaneč",
    "kod": "533980",
    "okres": "Kutná Hora",
    "kod_okresu": "CZ0205",
    "kraj": "Středočeský kraj",
    "kod_kraje": "CZ020",
    "psc": "28525",
    "lat": 49.778273,
    "lon": 15.222656
  },
  {
    "name": "Bohdašín",
    "kod": "576115",
    "okres": "Rychnov nad Kněžnou",
    "kod_okresu": "CZ0524",
    "kraj": "Královéhradecký kraj",
    "kod_kraje": "CZ052",
    "psc": "51801",
    "lat": 50.338561,
    "lon": 16.225153
  },
  {
    "name": "Bohdíkov",
    "kod": "525804",
    "okres": "Šumperk",
    "kod_okresu": "CZ0715",
    "kraj": "Olomoucký kraj",
    "kod_kraje": "CZ071",
    "psc": "78964",
    "lat": 50.010058,
    "lon": 16.904438
  },
  {
    "name": "Bohostice",
    "kod": "564559",
    "okres": "Příbram",
    "kod_okresu": "CZ020B",
    "kraj": "Středočeský kraj",
    "kod_kraje": "CZ020",
    "psc": "26231",
    "lat": 49.602243,
    "lon": 14.138233
  },
  {
    "name": "Bohumilice",
    "kod": "550116",
    "okres": "Prachatice",
    "kod_okresu": "CZ0315",
    "kraj": "Jihočeský kraj",
    "kod_kraje": "CZ031",
    "psc": "38481",
    "lat": 49.09618,
    "lon": 13.816441
  },
  {
    "name": "Bohumín",
    "kod": "599051",
    "okres": "Karviná",
    "kod_okresu": "CZ0803",
    "kraj": "Moravskoslezský kraj",
    "kod_kraje": "CZ080",
    "psc": "73581",
    "lat": 49.904426,
    "lon": 18.357074
  },
  {
    "name": "Bohunice",
    "kod": "537527",
    "okres": "Prachatice",
    "kod_okresu": "CZ0315",
    "kraj": "Jihočeský kraj",
    "kod_kraje": "CZ031",
    "psc": "38422",
    "lat": 49.132496,
    "lon": 13.973287
  },
  {
    "name": "Bohuslavice",
    "kod": "586901",
    "okres": "Jihlava",
    "kod_okresu": "CZ0632",
    "kraj": "Kraj Vysočina",
    "kod_kraje": "CZ063",
    "psc": "58856",
    "lat": 49.14953,
    "lon": 15.575917
  },
  {
    "name": "Bohuslavice",
    "kod": "573892",
    "okres": "Náchod",
    "kod_okresu": "CZ0523",
    "kraj": "Královéhradecký kraj",
    "kod_kraje": "CZ052",
    "psc": "54906",
    "lat": 50.312731,
    "lon": 16.088688
  },
  {
    "name": "Bohuslavice",
    "kod": "506192",
    "okres": "Opava",
    "kod_okresu": "CZ0805",
    "kraj": "Moravskoslezský kraj",
    "kod_kraje": "CZ080",
    "psc": "74719",
    "lat": 49.942415,
    "lon": 18.128764
  },
  {
    "name": "Bohuslavice",
    "kod": "589292",
    "okres": "Prostějov",
    "kod_okresu": "CZ0713",
    "kraj": "Olomoucký kraj",
    "kod_kraje": "CZ071",
    "psc": "79856",
    "lat": 49.620952,
    "lon": 16.957654
  },
  {
    "name": "Bohuslavice",
    "kod": "525880",
    "okres": "Šumperk",
    "kod_okresu": "CZ0715",
    "kraj": "Olomoucký kraj",
    "kod_kraje": "CZ071",
    "psc": "78972",
    "lat": 49.826153,
    "lon": 16.940636
  },
  {
    "name": "Bohuslavice nad Vláří",
    "kod": "557102",
    "okres": "Zlín",
    "kod_okresu": "CZ0724",
    "kraj": "Zlínský kraj",
    "kod_kraje": "CZ072",
    "psc": "76321",
    "lat": 49.090273,
    "lon": 17.926421
  },
  {
    "name": "Bohuslavice u Zlína",
    "kod": "585092",
    "okres": "Zlín",
    "kod_okresu": "CZ0724",
    "kraj": "Zlínský kraj",
    "kod_kraje": "CZ072",
    "psc": "76351",
    "lat": 49.163201,
    "lon": 17.636864
  },
  {
    "name": "Bohuslávky",
    "kod": "569178",
    "okres": "Přerov",
    "kod_okresu": "CZ0714",
    "kraj": "Olomoucký kraj",
    "kod_kraje": "CZ071",
    "psc": "75131",
    "lat": 49.555256,
    "lon": 17.567886
  },
  {
    "name": "Bohutice",
    "kod": "593788",
    "okres": "Znojmo",
    "kod_okresu": "CZ0647",
    "kraj": "Jihomoravský kraj",
    "kod_kraje": "CZ064",
    "psc": "67176",
    "lat": 48.991375,
    "lon": 16.357739
  },
  {
    "name": "Bohutín",
    "kod": "525979",
    "okres": "Šumperk",
    "kod_okresu": "CZ0715",
    "kraj": "Olomoucký kraj",
    "kod_kraje": "CZ071",
    "psc": "78962",
    "lat": 49.953611,
    "lon": 16.882039
  },
  {
    "name": "Bohutín",
    "kod": "539953",
    "okres": "Příbram",
    "kod_okresu": "CZ020B",
    "kraj": "Středočeský kraj",
    "kod_kraje": "CZ020",
    "psc": "26241",
    "lat": 49.65562,
    "lon": 13.943995
  },
  {
    "name": "Bohuňov",
    "kod": "595306",
    "okres": "Žďár nad Sázavou",
    "kod_okresu": "CZ0635",
    "kraj": "Kraj Vysočina",
    "kod_kraje": "CZ063",
    "psc": "59301",
    "lat": 49.560508,
    "lon": 16.202547
  },
  {
    "name": "Bohuňov",
    "kod": "577812",
    "okres": "Svitavy",
    "kod_okresu": "CZ0533",
    "kraj": "Pardubický kraj",
    "kod_kraje": "CZ053",
    "psc": "56904",
    "lat": 49.599198,
    "lon": 16.463955
  },
  {
    "name": "Bohuňovice",
    "kod": "500852",
    "okres": "Olomouc",
    "kod_okresu": "CZ0712",
    "kraj": "Olomoucký kraj",
    "kod_kraje": "CZ071",
    "psc": "78314",
    "lat": 49.663112,
    "lon": 17.287037
  },
  {
    "name": "Bohuňovice",
    "kod": "577821",
    "okres": "Svitavy",
    "kod_okresu": "CZ0533",
    "kraj": "Pardubický kraj",
    "kod_kraje": "CZ053",
    "psc": "57001",
    "lat": 49.907982,
    "lon": 16.262964
  },
  {
    "name": "Bohušice",
    "kod": "550400",
    "okres": "Třebíč",
    "kod_okresu": "CZ0634",
    "kraj": "Kraj Vysočina",
    "kod_kraje": "CZ063",
    "psc": "67551",
    "lat": 49.085207,
    "lon": 15.852226
  },
  {
    "name": "Bohušov",
    "kod": "597201",
    "okres": "Bruntál",
    "kod_okresu": "CZ0801",
    "kraj": "Moravskoslezský kraj",
    "kod_kraje": "CZ080",
    "psc": "79399",
    "lat": 50.243389,
    "lon": 17.713963
  },
  {
    "name": "Bohušovice nad Ohří",
    "kod": "564591",
    "okres": "Litoměřice",
    "kod_okresu": "CZ0423",
    "kraj": "Ústecký kraj",
    "kod_kraje": "CZ042",
    "psc": "41156",
    "lat": 50.493264,
    "lon": 14.150595
  },
  {
    "name": "Bohy",
    "kod": "566471",
    "okres": "Plzeň-sever",
    "kod_okresu": "CZ0325",
    "kraj": "Plzeňský kraj",
    "kod_kraje": "CZ032",
    "psc": "33141",
    "lat": 49.937892,
    "lon": 13.575531
  },
  {
    "name": "Boháňka",
    "kod": "572705",
    "okres": "Jičín",
    "kod_okresu": "CZ0522",
    "kraj": "Královéhradecký kraj",
    "kod_kraje": "CZ052",
    "psc": "50801",
    "lat": 50.365894,
    "lon": 15.708485
  },
  {
    "name": "Bojanov",
    "kod": "571202",
    "okres": "Chrudim",
    "kod_okresu": "CZ0531",
    "kraj": "Pardubický kraj",
    "kod_kraje": "CZ053",
    "psc": "53826",
    "lat": 49.841414,
    "lon": 15.704985
  },
  {
    "name": "Bojanovice",
    "kod": "593796",
    "okres": "Znojmo",
    "kod_okresu": "CZ0647",
    "kraj": "Jihomoravský kraj",
    "kod_kraje": "CZ064",
    "psc": "67153",
    "lat": 48.968259,
    "lon": 15.989159
  },
  {
    "name": "Bojanovice",
    "kod": "539104",
    "okres": "Praha-západ",
    "kod_okresu": "CZ020A",
    "kraj": "Středočeský kraj",
    "kod_kraje": "CZ020",
    "psc": "25206",
    "lat": 49.854542,
    "lon": 14.352145
  },
  {
    "name": "Bojiště",
    "kod": "568457",
    "okres": "Havlíčkův Brod",
    "kod_okresu": "CZ0631",
    "kraj": "Kraj Vysočina",
    "kod_kraje": "CZ063",
    "psc": "58401",
    "lat": 49.667888,
    "lon": 15.286899
  },
  {
    "name": "Bojkovice",
    "kod": "592048",
    "okres": "Uherské Hradiště",
    "kod_okresu": "CZ0722",
    "kraj": "Zlínský kraj",
    "kod_kraje": "CZ072",
    "psc": "68771",
    "lat": 49.038744,
    "lon": 17.814983
  },
  {
    "name": "Bolatice",
    "kod": "506214",
    "okres": "Opava",
    "kod_okresu": "CZ0805",
    "kraj": "Moravskoslezský kraj",
    "kod_kraje": "CZ080",
    "psc": "74723",
    "lat": 49.951819,
    "lon": 18.08369
  },
  {
    "name": "Boleboř",
    "kod": "563005",
    "okres": "Chomutov",
    "kod_okresu": "CZ0422",
    "kraj": "Ústecký kraj",
    "kod_kraje": "CZ042",
    "psc": "43121",
    "lat": 50.540271,
    "lon": 13.413447
  },
  {
    "name": "Bolehošť",
    "kod": "576123",
    "okres": "Rychnov nad Kněžnou",
    "kod_okresu": "CZ0524",
    "kraj": "Královéhradecký kraj",
    "kod_kraje": "CZ052",
    "psc": "51731",
    "lat": 50.213724,
    "lon": 16.077076
  },
  {
    "name": "Boleradice",
    "kod": "584321",
    "okres": "Břeclav",
    "kod_okresu": "CZ0644",
    "kraj": "Jihomoravský kraj",
    "kod_kraje": "CZ064",
    "psc": "69112",
    "lat": 48.966776,
    "lon": 16.814026
  },
  {
    "name": "Boletice (vojenský újezd)",
    "kod": "545422",
    "okres": "Český Krumlov",
    "kod_okresu": "CZ0312",
    "kraj": "Jihočeský kraj",
    "kod_kraje": "CZ031",
    "psc": "38229",
    "lat": 48.824975,
    "lon": 14.217435
  },
  {
    "name": "Bolešiny",
    "kod": "555835",
    "okres": "Klatovy",
    "kod_okresu": "CZ0322",
    "kraj": "Plzeňský kraj",
    "kod_kraje": "CZ032",
    "psc": "33901",
    "lat": 49.410002,
    "lon": 13.361712
  },
  {
    "name": "Bolkov",
    "kod": "540463",
    "okres": "Plzeň-jih",
    "kod_okresu": "CZ0324",
    "kraj": "Plzeňský kraj",
    "kod_kraje": "CZ032",
    "psc": "33401",
    "lat": 49.533675,
    "lon": 13.223973
  },
  {
    "name": "Bor",
    "kod": "560758",
    "okres": "Tachov",
    "kod_okresu": "CZ0327",
    "kraj": "Plzeňský kraj",
    "kod_kraje": "CZ032",
    "psc": "34802",
    "lat": 49.711706,
    "lon": 12.775276
  },
  {
    "name": "Bor u Skutče",
    "kod": "547867",
    "okres": "Chrudim",
    "kod_okresu": "CZ0531",
    "kraj": "Pardubický kraj",
    "kod_kraje": "CZ053",
    "psc": "53944",
    "lat": 49.822412,
    "lon": 16.127052
  },
  {
    "name": "Borač",
    "kod": "595314",
    "okres": "Brno-venkov",
    "kod_okresu": "CZ0643",
    "kraj": "Jihomoravský kraj",
    "kod_kraje": "CZ064",
    "psc": "59261",
    "lat": 49.400915,
    "lon": 16.361217
  },
  {
    "name": "Bordovice",
    "kod": "568431",
    "okres": "Nový Jičín",
    "kod_okresu": "CZ0804",
    "kraj": "Moravskoslezský kraj",
    "kod_kraje": "CZ080",
    "psc": "74401",
    "lat": 49.546979,
    "lon": 18.152729
  },
  {
    "name": "Borek",
    "kod": "544272",
    "okres": "České Budějovice",
    "kod_okresu": "CZ0311",
    "kraj": "Jihočeský kraj",
    "kod_kraje": "CZ031",
    "psc": "37367",
    "lat": 49.023491,
    "lon": 14.500984
  },
  {
    "name": "Borek",
    "kod": "568465",
    "okres": "Havlíčkův Brod",
    "kod_okresu": "CZ0631",
    "kraj": "Kraj Vysočina",
    "kod_kraje": "CZ063",
    "psc": "58282",
    "lat": 49.791915,
    "lon": 15.590083
  },
  {
    "name": "Borek",
    "kod": "548979",
    "okres": "Jičín",
    "kod_okresu": "CZ0522",
    "kraj": "Královéhradecký kraj",
    "kod_kraje": "CZ052",
    "psc": "50771",
    "lat": 50.438962,
    "lon": 15.654346
  },
  {
    "name": "Borek",
    "kod": "574783",
    "okres": "Pardubice",
    "kod_okresu": "CZ0532",
    "kraj": "Pardubický kraj",
    "kod_kraje": "CZ053",
    "psc": "53401",
    "lat": 50.127301,
    "lon": 15.856639
  },
  {
    "name": "Borek",
    "kod": "534684",
    "okres": "Praha-východ",
    "kod_okresu": "CZ0209",
    "kraj": "Středočeský kraj",
    "kod_kraje": "CZ020",
    "psc": "27714",
    "lat": 50.222684,
    "lon": 14.647521
  },
  {
    "name": "Boreč",
    "kod": "535508",
    "okres": "Mladá Boleslav",
    "kod_okresu": "CZ0207",
    "kraj": "Středočeský kraj",
    "kod_kraje": "CZ020",
    "psc": "29426",
    "lat": 50.407453,
    "lon": 14.732498
  },
  {
    "name": "Borkovany",
    "kod": "584339",
    "okres": "Břeclav",
    "kod_okresu": "CZ0644",
    "kraj": "Jihomoravský kraj",
    "kod_kraje": "CZ064",
    "psc": "69175",
    "lat": 49.028264,
    "lon": 16.810211
  },
  {
    "name": "Borkovice",
    "kod": "552097",
    "okres": "Tábor",
    "kod_okresu": "CZ0317",
    "kraj": "Jihočeský kraj",
    "kod_kraje": "CZ031",
    "psc": "39181",
    "lat": 49.208048,
    "lon": 14.643532
  },
  {
    "name": "Borohrádek",
    "kod": "576131",
    "okres": "Rychnov nad Kněžnou",
    "kod_okresu": "CZ0524",
    "kraj": "Královéhradecký kraj",
    "kod_kraje": "CZ052",
    "psc": "51724",
    "lat": 50.09787,
    "lon": 16.093365
  },
  {
    "name": "Borotice",
    "kod": "593800",
    "okres": "Znojmo",
    "kod_okresu": "CZ0647",
    "kraj": "Jihomoravský kraj",
    "kod_kraje": "CZ064",
    "psc": "67178",
    "lat": 48.857391,
    "lon": 16.242711
  },
  {
    "name": "Borotice",
    "kod": "539970",
    "okres": "Příbram",
    "kod_okresu": "CZ020B",
    "kraj": "Středočeský kraj",
    "kod_kraje": "CZ020",
    "psc": "26215",
    "lat": 49.735072,
    "lon": 14.279808
  },
  {
    "name": "Borotín",
    "kod": "552101",
    "okres": "Tábor",
    "kod_okresu": "CZ0317",
    "kraj": "Jihočeský kraj",
    "kod_kraje": "CZ031",
    "psc": "39135",
    "lat": 49.505132,
    "lon": 14.61307
  },
  {
    "name": "Borotín",
    "kod": "581356",
    "okres": "Blansko",
    "kod_okresu": "CZ0641",
    "kraj": "Jihomoravský kraj",
    "kod_kraje": "CZ064",
    "psc": "67937",
    "lat": 49.581447,
    "lon": 16.671585
  },
  {
    "name": "Borovany",
    "kod": "544281",
    "okres": "České Budějovice",
    "kod_okresu": "CZ0311",
    "kraj": "Jihočeský kraj",
    "kod_kraje": "CZ031",
    "psc": "37312",
    "lat": 48.898704,
    "lon": 14.642367
  },
  {
    "name": "Borovany",
    "kod": "598780",
    "okres": "Písek",
    "kod_okresu": "CZ0314",
    "kraj": "Jihočeský kraj",
    "kod_kraje": "CZ031",
    "psc": "39843",
    "lat": 49.343099,
    "lon": 14.392567
  },
  {
    "name": "Borovnice",
    "kod": "535681",
    "okres": "České Budějovice",
    "kod_okresu": "CZ0311",
    "kraj": "Jihočeský kraj",
    "kod_kraje": "CZ031",
    "psc": "37007",
    "lat": 48.912174,
    "lon": 14.519089
  },
  {
    "name": "Borovnice",
    "kod": "595322",
    "okres": "Žďár nad Sázavou",
    "kod_okresu": "CZ0635",
    "kraj": "Kraj Vysočina",
    "kod_kraje": "CZ063",
    "psc": "59242",
    "lat": 49.667328,
    "lon": 16.202654
  },
  {
    "name": "Borovnice",
    "kod": "576140",
    "okres": "Rychnov nad Kněžnou",
    "kod_okresu": "CZ0524",
    "kraj": "Královéhradecký kraj",
    "kod_kraje": "CZ052",
    "psc": "51741",
    "lat": 50.063008,
    "lon": 16.245418
  },
  {
    "name": "Borovnice",
    "kod": "579092",
    "okres": "Trutnov",
    "kod_okresu": "CZ0525",
    "kraj": "Královéhradecký kraj",
    "kod_kraje": "CZ052",
    "psc": "54477",
    "lat": 50.509256,
    "lon": 15.617294
  },
  {
    "name": "Borovnice",
    "kod": "532096",
    "okres": "Benešov",
    "kod_okresu": "CZ0201",
    "kraj": "Středočeský kraj",
    "kod_kraje": "CZ020",
    "psc": "25765",
    "lat": 49.648835,
    "lon": 15.018438
  },
  {
    "name": "Borovnička",
    "kod": "548821",
    "okres": "Trutnov",
    "kod_okresu": "CZ0525",
    "kraj": "Královéhradecký kraj",
    "kod_kraje": "CZ052",
    "psc": "54475",
    "lat": 50.500964,
    "lon": 15.667313
  },
  {
    "name": "Borovno",
    "kod": "566705",
    "okres": "Plzeň-jih",
    "kod_okresu": "CZ0324",
    "kraj": "Plzeňský kraj",
    "kod_kraje": "CZ032",
    "psc": "33561",
    "lat": 49.622087,
    "lon": 13.690481
  },
  {
    "name": "Borovná",
    "kod": "587184",
    "okres": "Jihlava",
    "kod_okresu": "CZ0632",
    "kraj": "Kraj Vysočina",
    "kod_kraje": "CZ063",
    "psc": "58856",
    "lat": 49.164698,
    "lon": 15.394712
  },
  {
    "name": "Borovník",
    "kod": "595331",
    "okres": "Brno-venkov",
    "kod_okresu": "CZ0643",
    "kraj": "Jihomoravský kraj",
    "kod_kraje": "CZ064",
    "psc": "59451",
    "lat": 49.355656,
    "lon": 16.229456
  },
  {
    "name": "Borovy",
    "kod": "542156",
    "okres": "Plzeň-jih",
    "kod_okresu": "CZ0324",
    "kraj": "Plzeňský kraj",
    "kod_kraje": "CZ032",
    "psc": "33401",
    "lat": 49.525208,
    "lon": 13.302442
  },
  {
    "name": "Borová",
    "kod": "573906",
    "okres": "Náchod",
    "kod_okresu": "CZ0523",
    "kraj": "Královéhradecký kraj",
    "kod_kraje": "CZ052",
    "psc": "54701",
    "lat": 50.386091,
    "lon": 16.253287
  },
  {
    "name": "Borová",
    "kod": "577839",
    "okres": "Svitavy",
    "kod_okresu": "CZ0533",
    "kraj": "Pardubický kraj",
    "kod_kraje": "CZ053",
    "psc": "56982",
    "lat": 49.741782,
    "lon": 16.162337
  },
  {
    "name": "Borová Lada",
    "kod": "545902",
    "okres": "Prachatice",
    "kod_okresu": "CZ0315",
    "kraj": "Jihočeský kraj",
    "kod_kraje": "CZ031",
    "psc": "38492",
    "lat": 48.989939,
    "lon": 13.659961
  },
  {
    "name": "Borušov",
    "kod": "572632",
    "okres": "Svitavy",
    "kod_okresu": "CZ0533",
    "kraj": "Pardubický kraj",
    "kod_kraje": "CZ053",
    "psc": "57101",
    "lat": 49.780652,
    "lon": 16.740556
  },
  {
    "name": "Bory",
    "kod": "595641",
    "okres": "Žďár nad Sázavou",
    "kod_okresu": "CZ0635",
    "kraj": "Kraj Vysočina",
    "kod_kraje": "CZ063",
    "psc": "59461",
    "lat": 49.425865,
    "lon": 16.026282
  },
  {
    "name": "Boršice",
    "kod": "592064",
    "okres": "Uherské Hradiště",
    "kod_okresu": "CZ0722",
    "kraj": "Zlínský kraj",
    "kod_kraje": "CZ072",
    "psc": "68709",
    "lat": 49.062643,
    "lon": 17.350953
  },
  {
    "name": "Boršice u Blatnice",
    "kod": "592056",
    "okres": "Uherské Hradiště",
    "kod_okresu": "CZ0722",
    "kraj": "Zlínský kraj",
    "kod_kraje": "CZ072",
    "psc": "68763",
    "lat": 48.934962,
    "lon": 17.571104
  },
  {
    "name": "Boršov",
    "kod": "586927",
    "okres": "Jihlava",
    "kod_okresu": "CZ0632",
    "kraj": "Kraj Vysočina",
    "kod_kraje": "CZ063",
    "psc": "58805",
    "lat": 49.404043,
    "lon": 15.434297
  },
  {
    "name": "Boršov nad Vltavou",
    "kod": "544299",
    "okres": "České Budějovice",
    "kod_okresu": "CZ0311",
    "kraj": "Jihočeský kraj",
    "kod_kraje": "CZ031",
    "psc": "37382",
    "lat": 48.921882,
    "lon": 14.434092
  },
  {
    "name": "Boseň",
    "kod": "535516",
    "okres": "Mladá Boleslav",
    "kod_okresu": "CZ0207",
    "kraj": "Středočeský kraj",
    "kod_kraje": "CZ020",
    "psc": "29501",
    "lat": 50.504204,
    "lon": 15.022906
  },
  {
    "name": "Boskovice",
    "kod": "581372",
    "okres": "Blansko",
    "kod_okresu": "CZ0641",
    "kraj": "Jihomoravský kraj",
    "kod_kraje": "CZ064",
    "psc": "68001",
    "lat": 49.487612,
    "lon": 16.660076
  },
  {
    "name": "Boskovštejn",
    "kod": "593818",
    "okres": "Znojmo",
    "kod_okresu": "CZ0647",
    "kraj": "Jihomoravský kraj",
    "kod_kraje": "CZ064",
    "psc": "67154",
    "lat": 48.982797,
    "lon": 15.929654
  },
  {
    "name": "Boudy",
    "kod": "562122",
    "okres": "Písek",
    "kod_okresu": "CZ0314",
    "kraj": "Jihočeský kraj",
    "kod_kraje": "CZ031",
    "psc": "39804",
    "lat": 49.448057,
    "lon": 14.035591
  },
  {
    "name": "Bousov",
    "kod": "571237",
    "okres": "Chrudim",
    "kod_okresu": "CZ0531",
    "kraj": "Pardubický kraj",
    "kod_kraje": "CZ053",
    "psc": "53843",
    "lat": 49.901849,
    "lon": 15.535529
  },
  {
    "name": "Bousín",
    "kod": "589306",
    "okres": "Prostějov",
    "kod_okresu": "CZ0713",
    "kraj": "Olomoucký kraj",
    "kod_kraje": "CZ071",
    "psc": "79861",
    "lat": 49.455207,
    "lon": 16.889847
  },
  {
    "name": "Bouzov",
    "kod": "500861",
    "okres": "Olomouc",
    "kod_okresu": "CZ0712",
    "kraj": "Olomoucký kraj",
    "kod_kraje": "CZ071",
    "psc": "78325",
    "lat": 49.704361,
    "lon": 16.892988
  },
  {
    "name": "Bozkov",
    "kod": "577006",
    "okres": "Semily",
    "kod_okresu": "CZ0514",
    "kraj": "Liberecký kraj",
    "kod_kraje": "CZ051",
    "psc": "51213",
    "lat": 50.640171,
    "lon": 15.337206
  },
  {
    "name": "Boňkov",
    "kod": "573558",
    "okres": "Havlíčkův Brod",
    "kod_okresu": "CZ0631",
    "kraj": "Kraj Vysočina",
    "kod_kraje": "CZ063",
    "psc": "58255",
    "lat": 49.54715,
    "lon": 15.447573
  },
  {
    "name": "Bořanovice",
    "kod": "538086",
    "okres": "Praha-východ",
    "kod_okresu": "CZ0209",
    "kraj": "Středočeský kraj",
    "kod_kraje": "CZ020",
    "psc": "25065",
    "lat": 50.178336,
    "lon": 14.478857
  },
  {
    "name": "Bořenovice",
    "kod": "549690",
    "okres": "Kroměříž",
    "kod_okresu": "CZ0721",
    "kraj": "Zlínský kraj",
    "kod_kraje": "CZ072",
    "psc": "76901",
    "lat": 49.361618,
    "lon": 17.564472
  },
  {
    "name": "Bořetice",
    "kod": "584347",
    "okres": "Břeclav",
    "kod_okresu": "CZ0644",
    "kraj": "Jihomoravský kraj",
    "kod_kraje": "CZ064",
    "psc": "69108",
    "lat": 48.913124,
    "lon": 16.853168
  },
  {
    "name": "Bořetice",
    "kod": "561240",
    "okres": "Pelhřimov",
    "kod_okresu": "CZ0633",
    "kraj": "Kraj Vysočina",
    "kod_kraje": "CZ063",
    "psc": "39501",
    "lat": 49.496166,
    "lon": 15.11005
  },
  {
    "name": "Bořetín",
    "kod": "562742",
    "okres": "Jindřichův Hradec",
    "kod_okresu": "CZ0313",
    "kraj": "Jihočeský kraj",
    "kod_kraje": "CZ031",
    "psc": "37853",
    "lat": 49.189321,
    "lon": 15.211941
  },
  {
    "name": "Bořetín",
    "kod": "509418",
    "okres": "Pelhřimov",
    "kod_okresu": "CZ0633",
    "kraj": "Kraj Vysočina",
    "kod_kraje": "CZ063",
    "psc": "39470",
    "lat": 49.310234,
    "lon": 14.947722
  },
  {
    "name": "Bořice",
    "kod": "571229",
    "okres": "Chrudim",
    "kod_okresu": "CZ0531",
    "kraj": "Pardubický kraj",
    "kod_kraje": "CZ053",
    "psc": "53862",
    "lat": 49.97695,
    "lon": 15.925435
  },
  {
    "name": "Bořislav",
    "kod": "567469",
    "okres": "Teplice",
    "kod_okresu": "CZ0426",
    "kraj": "Ústecký kraj",
    "kod_kraje": "CZ042",
    "psc": "41501",
    "lat": 50.579462,
    "lon": 13.929313
  },
  {
    "name": "Bořitov",
    "kod": "581364",
    "okres": "Blansko",
    "kod_okresu": "CZ0641",
    "kraj": "Jihomoravský kraj",
    "kod_kraje": "CZ064",
    "psc": "67921",
    "lat": 49.425135,
    "lon": 16.591291
  },
  {
    "name": "Bošice",
    "kod": "550124",
    "okres": "Prachatice",
    "kod_okresu": "CZ0315",
    "kraj": "Jihočeský kraj",
    "kod_kraje": "CZ031",
    "psc": "38481",
    "lat": 49.089388,
    "lon": 13.840431
  },
  {
    "name": "Bošilec",
    "kod": "535401",
    "okres": "České Budějovice",
    "kod_okresu": "CZ0311",
    "kraj": "Jihočeský kraj",
    "kod_kraje": "CZ031",
    "psc": "37365",
    "lat": 49.149418,
    "lon": 14.646319
  },
  {
    "name": "Bošovice",
    "kod": "592919",
    "okres": "Vyškov",
    "kod_okresu": "CZ0646",
    "kraj": "Jihomoravský kraj",
    "kod_kraje": "CZ064",
    "psc": "68354",
    "lat": 49.053609,
    "lon": 16.836868
  },
  {
    "name": "Bošín",
    "kod": "548006",
    "okres": "Ústí nad Orlicí",
    "kod_okresu": "CZ0534",
    "kraj": "Pardubický kraj",
    "kod_kraje": "CZ053",
    "psc": "56501",
    "lat": 50.034233,
    "lon": 16.203069
  },
  {
    "name": "Božanov",
    "kod": "573914",
    "okres": "Náchod",
    "kod_okresu": "CZ0523",
    "kraj": "Královéhradecký kraj",
    "kod_kraje": "CZ052",
    "psc": "54974",
    "lat": 50.526878,
    "lon": 16.365391
  },
  {
    "name": "Božejov",
    "kod": "547581",
    "okres": "Pelhřimov",
    "kod_okresu": "CZ0633",
    "kraj": "Kraj Vysočina",
    "kod_kraje": "CZ063",
    "psc": "39461",
    "lat": 49.362207,
    "lon": 15.155899
  },
  {
    "name": "Božetice",
    "kod": "549291",
    "okres": "Písek",
    "kod_okresu": "CZ0314",
    "kraj": "Jihočeský kraj",
    "kod_kraje": "CZ031",
    "psc": "39901",
    "lat": 49.45123,
    "lon": 14.444001
  },
  {
    "name": "Božice",
    "kod": "593826",
    "okres": "Znojmo",
    "kod_okresu": "CZ0647",
    "kraj": "Jihomoravský kraj",
    "kod_kraje": "CZ064",
    "psc": "67164",
    "lat": 48.836967,
    "lon": 16.288856
  },
  {
    "name": "Božičany",
    "kod": "555045",
    "okres": "Karlovy Vary",
    "kod_okresu": "CZ0412",
    "kraj": "Karlovarský kraj",
    "kod_kraje": "CZ041",
    "psc": "36225",
    "lat": 50.258843,
    "lon": 12.769752
  },
  {
    "name": "Boží Dar",
    "kod": "506486",
    "okres": "Karlovy Vary",
    "kod_okresu": "CZ0412",
    "kraj": "Karlovarský kraj",
    "kod_kraje": "CZ041",
    "psc": "36301",
    "lat": 50.409844,
    "lon": 12.924571
  },
  {
    "name": "Brada-Rybníček",
    "kod": "549100",
    "okres": "Jičín",
    "kod_okresu": "CZ0522",
    "kraj": "Královéhradecký kraj",
    "kod_kraje": "CZ052",
    "psc": "50601",
    "lat": 50.465297,
    "lon": 15.337606
  },
  {
    "name": "Bradlec",
    "kod": "570788",
    "okres": "Mladá Boleslav",
    "kod_okresu": "CZ0207",
    "kraj": "Středočeský kraj",
    "kod_kraje": "CZ020",
    "psc": "29306",
    "lat": 50.451452,
    "lon": 14.910293
  },
  {
    "name": "Bradlecká Lhota",
    "kod": "577014",
    "okres": "Semily",
    "kod_okresu": "CZ0514",
    "kraj": "Liberecký kraj",
    "kod_kraje": "CZ051",
    "psc": "50713",
    "lat": 50.488672,
    "lon": 15.396332
  },
  {
    "name": "Bradáčov",
    "kod": "552127",
    "okres": "Tábor",
    "kod_okresu": "CZ0317",
    "kraj": "Jihočeský kraj",
    "kod_kraje": "CZ031",
    "psc": "39143",
    "lat": 49.490902,
    "lon": 14.871519
  },
  {
    "name": "Brambory",
    "kod": "530832",
    "okres": "Kutná Hora",
    "kod_okresu": "CZ0205",
    "kraj": "Středočeský kraj",
    "kod_kraje": "CZ020",
    "psc": "28601",
    "lat": 49.97825,
    "lon": 15.470316
  },
  {
    "name": "Brandov",
    "kod": "567078",
    "okres": "Most",
    "kod_okresu": "CZ0425",
    "kraj": "Ústecký kraj",
    "kod_kraje": "CZ042",
    "psc": "43547",
    "lat": 50.63211,
    "lon": 13.390831
  },
  {
    "name": "Brandýs nad Labem - Stará Boleslav",
    "kod": "538094",
    "okres": "Praha-východ",
    "kod_okresu": "CZ0209",
    "kraj": "Středočeský kraj",
    "kod_kraje": "CZ020",
    "psc": "25001",
    "lat": 50.186426,
    "lon": 14.659344
  },
  {
    "name": "Brandýs nad Orlicí",
    "kod": "579947",
    "okres": "Ústí nad Orlicí",
    "kod_okresu": "CZ0534",
    "kraj": "Pardubický kraj",
    "kod_kraje": "CZ053",
    "psc": "56112",
    "lat": 50.002042,
    "lon": 16.285384
  },
  {
    "name": "Brandýsek",
    "kod": "532118",
    "okres": "Kladno",
    "kod_okresu": "CZ0203",
    "kraj": "Středočeský kraj",
    "kod_kraje": "CZ020",
    "psc": "27341",
    "lat": 50.18933,
    "lon": 14.162098
  },
  {
    "name": "Branice",
    "kod": "549304",
    "okres": "Písek",
    "kod_okresu": "CZ0314",
    "kraj": "Jihočeský kraj",
    "kod_kraje": "CZ031",
    "psc": "39843",
    "lat": 49.402569,
    "lon": 14.33964
  },
  {
    "name": "Branišov",
    "kod": "551490",
    "okres": "České Budějovice",
    "kod_okresu": "CZ0311",
    "kraj": "Jihočeský kraj",
    "kod_kraje": "CZ031",
    "psc": "37384",
    "lat": 48.978807,
    "lon": 14.395791
  },
  {
    "name": "Branišovice",
    "kod": "593834",
    "okres": "Brno-venkov",
    "kod_okresu": "CZ0643",
    "kraj": "Jihomoravský kraj",
    "kod_kraje": "CZ064",
    "psc": "67177",
    "lat": 48.962911,
    "lon": 16.431951
  },
  {
    "name": "Branka u Opavy",
    "kod": "554197",
    "okres": "Opava",
    "kod_okresu": "CZ0805",
    "kraj": "Moravskoslezský kraj",
    "kod_kraje": "CZ080",
    "psc": "74741",
    "lat": 49.888057,
    "lon": 17.882754
  },
  {
    "name": "Brankovice",
    "kod": "592927",
    "okres": "Vyškov",
    "kod_okresu": "CZ0646",
    "kraj": "Jihomoravský kraj",
    "kod_kraje": "CZ064",
    "psc": "68333",
    "lat": 49.156081,
    "lon": 17.134911
  },
  {
    "name": "Branky",
    "kod": "541648",
    "okres": "Vsetín",
    "kod_okresu": "CZ0723",
    "kraj": "Zlínský kraj",
    "kod_kraje": "CZ072",
    "psc": "75645",
    "lat": 49.461056,
    "lon": 17.89306
  },
  {
    "name": "Branná",
    "kod": "526169",
    "okres": "Šumperk",
    "kod_okresu": "CZ0715",
    "kraj": "Olomoucký kraj",
    "kod_kraje": "CZ071",
    "psc": "78825",
    "lat": 50.15336,
    "lon": 17.011954
  },
  {
    "name": "Branov",
    "kod": "541672",
    "okres": "Rakovník",
    "kod_okresu": "CZ020C",
    "kraj": "Středočeský kraj",
    "kod_kraje": "CZ020",
    "psc": "27023",
    "lat": 50.012981,
    "lon": 13.843021
  },
  {
    "name": "Bransouze",
    "kod": "590363",
    "okres": "Třebíč",
    "kod_okresu": "CZ0634",
    "kraj": "Kraj Vysočina",
    "kod_kraje": "CZ063",
    "psc": "67521",
    "lat": 49.302776,
    "lon": 15.751924
  },
  {
    "name": "Brantice",
    "kod": "597210",
    "okres": "Bruntál",
    "kod_okresu": "CZ0801",
    "kraj": "Moravskoslezský kraj",
    "kod_kraje": "CZ080",
    "psc": "79393",
    "lat": 50.063603,
    "lon": 17.629214
  },
  {
    "name": "Braníškov",
    "kod": "582875",
    "okres": "Brno-venkov",
    "kod_okresu": "CZ0643",
    "kraj": "Jihomoravský kraj",
    "kod_kraje": "CZ064",
    "psc": "66471",
    "lat": 49.294469,
    "lon": 16.345762
  },
  {
    "name": "Branžež",
    "kod": "571946",
    "okres": "Mladá Boleslav",
    "kod_okresu": "CZ0207",
    "kraj": "Středočeský kraj",
    "kod_kraje": "CZ020",
    "psc": "29402",
    "lat": 50.507685,
    "lon": 15.058005
  },
  {
    "name": "Bratkovice",
    "kod": "539988",
    "okres": "Příbram",
    "kod_okresu": "CZ020B",
    "kraj": "Středočeský kraj",
    "kod_kraje": "CZ020",
    "psc": "26223",
    "lat": 49.740519,
    "lon": 13.999043
  },
  {
    "name": "Bratronice",
    "kod": "537063",
    "okres": "Strakonice",
    "kod_okresu": "CZ0316",
    "kraj": "Jihočeský kraj",
    "kod_kraje": "CZ031",
    "psc": "38801",
    "lat": 49.365361,
    "lon": 13.842454
  },
  {
    "name": "Bratronice",
    "kod": "532142",
    "okres": "Kladno",
    "kod_okresu": "CZ0203",
    "kraj": "Středočeský kraj",
    "kod_kraje": "CZ020",
    "psc": "27363",
    "lat": 50.067851,
    "lon": 14.014265
  },
  {
    "name": "Bratrušov",
    "kod": "569437",
    "okres": "Šumperk",
    "kod_okresu": "CZ0715",
    "kraj": "Olomoucký kraj",
    "kod_kraje": "CZ071",
    "psc": "78701",
    "lat": 50.009487,
    "lon": 16.949028
  },
  {
    "name": "Bratčice",
    "kod": "582883",
    "okres": "Brno-venkov",
    "kod_okresu": "CZ0643",
    "kraj": "Jihomoravský kraj",
    "kod_kraje": "CZ064",
    "psc": "66467",
    "lat": 49.065247,
    "lon": 16.523184
  },
  {
    "name": "Bratčice",
    "kod": "531286",
    "okres": "Kutná Hora",
    "kod_okresu": "CZ0205",
    "kraj": "Středočeský kraj",
    "kod_kraje": "CZ020",
    "psc": "28601",
    "lat": 49.855317,
    "lon": 15.430482
  },
  {
    "name": "Bratřejov",
    "kod": "585106",
    "okres": "Zlín",
    "kod_okresu": "CZ0724",
    "kraj": "Zlínský kraj",
    "kod_kraje": "CZ072",
    "psc": "76312",
    "lat": 49.222558,
    "lon": 17.913427
  },
  {
    "name": "Bratřice",
    "kod": "547603",
    "okres": "Pelhřimov",
    "kod_okresu": "CZ0633",
    "kraj": "Kraj Vysočina",
    "kod_kraje": "CZ063",
    "psc": "39501",
    "lat": 49.516554,
    "lon": 15.001328
  },
  {
    "name": "Bratříkovice",
    "kod": "553107",
    "okres": "Opava",
    "kod_okresu": "CZ0805",
    "kraj": "Moravskoslezský kraj",
    "kod_kraje": "CZ080",
    "psc": "74752",
    "lat": 49.932674,
    "lon": 17.687641
  },
  {
    "name": "Bratřínov",
    "kod": "571199",
    "okres": "Praha-západ",
    "kod_okresu": "CZ020A",
    "kraj": "Středočeský kraj",
    "kod_kraje": "CZ020",
    "psc": "25205",
    "lat": 49.842681,
    "lon": 14.340242
  },
  {
    "name": "Bravantice",
    "kod": "556858",
    "okres": "Nový Jičín",
    "kod_okresu": "CZ0804",
    "kraj": "Moravskoslezský kraj",
    "kod_kraje": "CZ080",
    "psc": "74281",
    "lat": 49.757218,
    "lon": 18.082863
  },
  {
    "name": "Braňany",
    "kod": "567060",
    "okres": "Most",
    "kod_okresu": "CZ0425",
    "kraj": "Ústecký kraj",
    "kod_kraje": "CZ042",
    "psc": "43522",
    "lat": 50.543055,
    "lon": 13.700283
  },
  {
    "name": "Braškov",
    "kod": "532126",
    "okres": "Kladno",
    "kod_okresu": "CZ0203",
    "kraj": "Středočeský kraj",
    "kod_kraje": "CZ020",
    "psc": "27351",
    "lat": 50.102133,
    "lon": 14.100859
  },
  {
    "name": "Bražec",
    "kod": "500101",
    "okres": "Karlovy Vary",
    "kod_okresu": "CZ0412",
    "kraj": "Karlovarský kraj",
    "kod_kraje": "CZ041",
    "psc": "36471",
    "lat": 50.172681,
    "lon": 13.046575
  },
  {
    "name": "Brdy (vojenský újezd)",
    "kod": "539996",
    "okres": "Příbram",
    "kod_okresu": "CZ020B",
    "kraj": "Středočeský kraj",
    "kod_kraje": "CZ020",
    "psc": "26223",
    "lat": 49.789268,
    "lon": 13.903243
  },
  {
    "name": "Brloh",
    "kod": "545431",
    "okres": "Český Krumlov",
    "kod_okresu": "CZ0312",
    "kraj": "Jihočeský kraj",
    "kod_kraje": "CZ031",
    "psc": "38206",
    "lat": 48.92998,
    "lon": 14.218667
  },
  {
    "name": "Brloh",
    "kod": "574791",
    "okres": "Pardubice",
    "kod_okresu": "CZ0532",
    "kraj": "Pardubický kraj",
    "kod_kraje": "CZ053",
    "psc": "53501",
    "lat": 50.000688,
    "lon": 15.557385
  },
  {
    "name": "Brniště",
    "kod": "561444",
    "okres": "Česká Lípa",
    "kod_okresu": "CZ0511",
    "kraj": "Liberecký kraj",
    "kod_kraje": "CZ051",
    "psc": "47129",
    "lat": 50.729288,
    "lon": 14.703495
  },
  {
    "name": "Brno",
    "kod": "582786",
    "okres": "Brno-město",
    "kod_okresu": "CZ0642",
    "kraj": "Jihomoravský kraj",
    "kod_kraje": "CZ064",
    "psc": "60200",
    "lat": 49.19516,
    "lon": 16.606937
  },
  {
    "name": "Brníčko",
    "kod": "530727",
    "okres": "Šumperk",
    "kod_okresu": "CZ0715",
    "kraj": "Olomoucký kraj",
    "kod_kraje": "CZ071",
    "psc": "78975",
    "lat": 49.894982,
    "lon": 16.968308
  },
  {
    "name": "Brnířov",
    "kod": "566136",
    "okres": "Domažlice",
    "kod_okresu": "CZ0321",
    "kraj": "Plzeňský kraj",
    "kod_kraje": "CZ032",
    "psc": "34506",
    "lat": 49.382698,
    "lon": 13.04969
  },
  {
    "name": "Brněnec",
    "kod": "577863",
    "okres": "Svitavy",
    "kod_okresu": "CZ0533",
    "kraj": "Pardubický kraj",
    "kod_kraje": "CZ053",
    "psc": "56904",
    "lat": 49.627449,
    "lon": 16.522125
  },
  {
    "name": "Brod nad Dyjí",
    "kod": "584355",
    "okres": "Břeclav",
    "kod_okresu": "CZ0644",
    "kraj": "Jihomoravský kraj",
    "kod_kraje": "CZ064",
    "psc": "69181",
    "lat": 48.875309,
    "lon": 16.535482
  },
  {
    "name": "Brod nad Tichou",
    "kod": "541605",
    "okres": "Tachov",
    "kod_okresu": "CZ0327",
    "kraj": "Plzeňský kraj",
    "kod_kraje": "CZ032",
    "psc": "34815",
    "lat": 49.835396,
    "lon": 12.741203
  },
  {
    "name": "Brodce",
    "kod": "535559",
    "okres": "Mladá Boleslav",
    "kod_okresu": "CZ0207",
    "kraj": "Středočeský kraj",
    "kod_kraje": "CZ020",
    "psc": "29473",
    "lat": 50.33078,
    "lon": 14.86928
  },
  {
    "name": "Brodec",
    "kod": "546895",
    "okres": "Louny",
    "kod_okresu": "CZ0424",
    "kraj": "Ústecký kraj",
    "kod_kraje": "CZ042",
    "psc": "44001",
    "lat": 50.295025,
    "lon": 13.801725
  },
  {
    "name": "Brodek u Konice",
    "kod": "589314",
    "okres": "Prostějov",
    "kod_okresu": "CZ0713",
    "kraj": "Olomoucký kraj",
    "kod_kraje": "CZ071",
    "psc": "79846",
    "lat": 49.548791,
    "lon": 16.83297
  },
  {
    "name": "Brodek u Prostějova",
    "kod": "589322",
    "okres": "Prostějov",
    "kod_okresu": "CZ0713",
    "kraj": "Olomoucký kraj",
    "kod_kraje": "CZ071",
    "psc": "79807",
    "lat": 49.370064,
    "lon": 17.090164
  },
  {
    "name": "Brodek u Přerova",
    "kod": "512800",
    "okres": "Přerov",
    "kod_okresu": "CZ0714",
    "kraj": "Olomoucký kraj",
    "kod_kraje": "CZ071",
    "psc": "75103",
    "lat": 49.484289,
    "lon": 17.338354
  },
  {
    "name": "Brodeslavy",
    "kod": "566489",
    "okres": "Plzeň-sever",
    "kod_okresu": "CZ0325",
    "kraj": "Plzeňský kraj",
    "kod_kraje": "CZ032",
    "psc": "33141",
    "lat": 49.953778,
    "lon": 13.557097
  },
  {
    "name": "Broumov",
    "kod": "573922",
    "okres": "Náchod",
    "kod_okresu": "CZ0523",
    "kraj": "Královéhradecký kraj",
    "kod_kraje": "CZ052",
    "psc": "55001",
    "lat": 50.585758,
    "lon": 16.331915
  },
  {
    "name": "Broumov",
    "kod": "541401",
    "okres": "Tachov",
    "kod_okresu": "CZ0327",
    "kraj": "Plzeňský kraj",
    "kod_kraje": "CZ032",
    "psc": "34815",
    "lat": 49.889478,
    "lon": 12.606805
  },
  {
    "name": "Broumy",
    "kod": "531081",
    "okres": "Beroun",
    "kod_okresu": "CZ0202",
    "kraj": "Středočeský kraj",
    "kod_kraje": "CZ020",
    "psc": "26742",
    "lat": 49.955171,
    "lon": 13.852368
  },
  {
    "name": "Brozany nad Ohří",
    "kod": "564621",
    "okres": "Litoměřice",
    "kod_okresu": "CZ0423",
    "kraj": "Ústecký kraj",
    "kod_kraje": "CZ042",
    "psc": "41181",
    "lat": 50.453763,
    "lon": 14.145512
  },
  {
    "name": "Brtnice",
    "kod": "586943",
    "okres": "Jihlava",
    "kod_okresu": "CZ0632",
    "kraj": "Kraj Vysočina",
    "kod_kraje": "CZ063",
    "psc": "58832",
    "lat": 49.307047,
    "lon": 15.676522
  },
  {
    "name": "Brtnička",
    "kod": "590371",
    "okres": "Jihlava",
    "kod_okresu": "CZ0632",
    "kraj": "Kraj Vysočina",
    "kod_kraje": "CZ063",
    "psc": "67527",
    "lat": 49.237281,
    "lon": 15.624317
  },
  {
    "name": "Brumov",
    "kod": "581402",
    "okres": "Brno-venkov",
    "kod_okresu": "CZ0643",
    "kraj": "Jihomoravský kraj",
    "kod_kraje": "CZ064",
    "psc": "67923",
    "lat": 49.462484,
    "lon": 16.425856
  },
  {
    "name": "Brumov-Bylnice",
    "kod": "585114",
    "okres": "Zlín",
    "kod_okresu": "CZ0724",
    "kraj": "Zlínský kraj",
    "kod_kraje": "CZ072",
    "psc": "76331",
    "lat": 49.092465,
    "lon": 18.022809
  },
  {
    "name": "Brumovice",
    "kod": "584363",
    "okres": "Břeclav",
    "kod_okresu": "CZ0644",
    "kraj": "Jihomoravský kraj",
    "kod_kraje": "CZ064",
    "psc": "69111",
    "lat": 48.960895,
    "lon": 16.89626
  },
  {
    "name": "Brumovice",
    "kod": "506320",
    "okres": "Opava",
    "kod_okresu": "CZ0805",
    "kraj": "Moravskoslezský kraj",
    "kod_kraje": "CZ080",
    "psc": "74771",
    "lat": 50.015393,
    "lon": 17.749685
  },
  {
    "name": "Bruntál",
    "kod": "597180",
    "okres": "Bruntál",
    "kod_okresu": "CZ0801",
    "kraj": "Moravskoslezský kraj",
    "kod_kraje": "CZ080",
    "psc": "79201",
    "lat": 49.988277,
    "lon": 17.463794
  },
  {
    "name": "Brusné",
    "kod": "588377",
    "okres": "Kroměříž",
    "kod_okresu": "CZ0721",
    "kraj": "Zlínský kraj",
    "kod_kraje": "CZ072",
    "psc": "76861",
    "lat": 49.36344,
    "lon": 17.660807
  },
  {
    "name": "Bruzovice",
    "kod": "598046",
    "okres": "Frýdek-Místek",
    "kod_okresu": "CZ0802",
    "kraj": "Moravskoslezský kraj",
    "kod_kraje": "CZ080",
    "psc": "73936",
    "lat": 49.717092,
    "lon": 18.409749
  },
  {
    "name": "Brušperk",
    "kod": "598038",
    "okres": "Frýdek-Místek",
    "kod_okresu": "CZ0802",
    "kraj": "Moravskoslezský kraj",
    "kod_kraje": "CZ080",
    "psc": "73944",
    "lat": 49.700196,
    "lon": 18.222205
  },
  {
    "name": "Brzice",
    "kod": "573931",
    "okres": "Náchod",
    "kod_okresu": "CZ0523",
    "kraj": "Královéhradecký kraj",
    "kod_kraje": "CZ052",
    "psc": "55205",
    "lat": 50.444489,
    "lon": 15.958411
  },
  {
    "name": "Brzkov",
    "kod": "586951",
    "okres": "Jihlava",
    "kod_okresu": "CZ0632",
    "kraj": "Kraj Vysočina",
    "kod_kraje": "CZ063",
    "psc": "58813",
    "lat": 49.526068,
    "lon": 15.72724
  },
  {
    "name": "Brzánky",
    "kod": "546755",
    "okres": "Litoměřice",
    "kod_okresu": "CZ0423",
    "kraj": "Ústecký kraj",
    "kod_kraje": "CZ042",
    "psc": "41301",
    "lat": 50.461941,
    "lon": 14.301296
  },
  {
    "name": "Brázdim",
    "kod": "538108",
    "okres": "Praha-východ",
    "kod_okresu": "CZ0209",
    "kraj": "Středočeský kraj",
    "kod_kraje": "CZ020",
    "psc": "25063",
    "lat": 50.183633,
    "lon": 14.58829
  },
  {
    "name": "Brňany",
    "kod": "564613",
    "okres": "Litoměřice",
    "kod_okresu": "CZ0423",
    "kraj": "Ústecký kraj",
    "kod_kraje": "CZ042",
    "psc": "41201",
    "lat": 50.481073,
    "lon": 14.141967
  },
  {
    "name": "Brťov-Jeneč",
    "kod": "581381",
    "okres": "Blansko",
    "kod_okresu": "CZ0641",
    "kraj": "Jihomoravský kraj",
    "kod_kraje": "CZ064",
    "psc": "67921",
    "lat": 49.413781,
    "lon": 16.517076
  },
  {
    "name": "Bublava",
    "kod": "560308",
    "okres": "Sokolov",
    "kod_okresu": "CZ0413",
    "kraj": "Karlovarský kraj",
    "kod_kraje": "CZ041",
    "psc": "35801",
    "lat": 50.374494,
    "lon": 12.505287
  },
  {
    "name": "Bubovice",
    "kod": "531103",
    "okres": "Beroun",
    "kod_okresu": "CZ0202",
    "kraj": "Středočeský kraj",
    "kod_kraje": "CZ020",
    "psc": "26718",
    "lat": 49.969761,
    "lon": 14.166601
  },
  {
    "name": "Buchlovice",
    "kod": "592102",
    "okres": "Uherské Hradiště",
    "kod_okresu": "CZ0722",
    "kraj": "Zlínský kraj",
    "kod_kraje": "CZ072",
    "psc": "68708",
    "lat": 49.086371,
    "lon": 17.338628
  },
  {
    "name": "Budeč",
    "kod": "546020",
    "okres": "Jindřichův Hradec",
    "kod_okresu": "CZ0313",
    "kraj": "Jihočeský kraj",
    "kod_kraje": "CZ031",
    "psc": "37892",
    "lat": 49.087277,
    "lon": 15.589973
  },
  {
    "name": "Budeč",
    "kod": "595390",
    "okres": "Žďár nad Sázavou",
    "kod_okresu": "CZ0635",
    "kraj": "Kraj Vysočina",
    "kod_kraje": "CZ063",
    "psc": "59214",
    "lat": 49.53647,
    "lon": 15.912421
  },
  {
    "name": "Budiměřice",
    "kod": "537055",
    "okres": "Nymburk",
    "kod_okresu": "CZ0208",
    "kraj": "Středočeský kraj",
    "kod_kraje": "CZ020",
    "psc": "28802",
    "lat": 50.195426,
    "lon": 15.098869
  },
  {
    "name": "Budislav",
    "kod": "552143",
    "okres": "Tábor",
    "kod_okresu": "CZ0317",
    "kraj": "Jihočeský kraj",
    "kod_kraje": "CZ031",
    "psc": "39201",
    "lat": 49.293941,
    "lon": 14.837518
  },
  {
    "name": "Budislav",
    "kod": "577910",
    "okres": "Svitavy",
    "kod_okresu": "CZ0533",
    "kraj": "Pardubický kraj",
    "kod_kraje": "CZ053",
    "psc": "56965",
    "lat": 49.801511,
    "lon": 16.174739
  },
  {
    "name": "Budišov",
    "kod": "590401",
    "okres": "Třebíč",
    "kod_okresu": "CZ0634",
    "kraj": "Kraj Vysočina",
    "kod_kraje": "CZ063",
    "psc": "67503",
    "lat": 49.271484,
    "lon": 16.003938
  },
  {
    "name": "Budišov nad Budišovkou",
    "kod": "506460",
    "okres": "Opava",
    "kod_okresu": "CZ0805",
    "kraj": "Moravskoslezský kraj",
    "kod_kraje": "CZ080",
    "psc": "74787",
    "lat": 49.79521,
    "lon": 17.629792
  },
  {
    "name": "Budišovice",
    "kod": "568261",
    "okres": "Opava",
    "kod_okresu": "CZ0805",
    "kraj": "Moravskoslezský kraj",
    "kod_kraje": "CZ080",
    "psc": "74764",
    "lat": 49.861418,
    "lon": 18.039719
  },
  {
    "name": "Budkov",
    "kod": "561576",
    "okres": "Prachatice",
    "kod_okresu": "CZ0315",
    "kraj": "Jihočeský kraj",
    "kod_kraje": "CZ031",
    "psc": "38422",
    "lat": 49.070156,
    "lon": 14.007074
  },
  {
    "name": "Budkov",
    "kod": "590410",
    "okres": "Třebíč",
    "kod_okresu": "CZ0634",
    "kraj": "Kraj Vysočina",
    "kod_kraje": "CZ063",
    "psc": "67542",
    "lat": 49.054591,
    "lon": 15.65903
  },
  {
    "name": "Budyně",
    "kod": "560171",
    "okres": "Strakonice",
    "kod_okresu": "CZ0316",
    "kraj": "Jihočeský kraj",
    "kod_kraje": "CZ031",
    "psc": "38773",
    "lat": 49.14606,
    "lon": 14.071176
  },
  {
    "name": "Budyně nad Ohří",
    "kod": "564656",
    "okres": "Litoměřice",
    "kod_okresu": "CZ0423",
    "kraj": "Ústecký kraj",
    "kod_kraje": "CZ042",
    "psc": "41118",
    "lat": 50.404377,
    "lon": 14.126018
  },
  {
    "name": "Budíkov",
    "kod": "547638",
    "okres": "Pelhřimov",
    "kod_okresu": "CZ0633",
    "kraj": "Kraj Vysočina",
    "kod_kraje": "CZ063",
    "psc": "39601",
    "lat": 49.579243,
    "lon": 15.362705
  },
  {
    "name": "Budíškovice",
    "kod": "546038",
    "okres": "Jindřichův Hradec",
    "kod_okresu": "CZ0313",
    "kraj": "Jihočeský kraj",
    "kod_kraje": "CZ031",
    "psc": "37891",
    "lat": 49.076348,
    "lon": 15.531006
  },
  {
    "name": "Budčeves",
    "kod": "548952",
    "okres": "Jičín",
    "kod_okresu": "CZ0522",
    "kraj": "Královéhradecký kraj",
    "kod_kraje": "CZ052",
    "psc": "50732",
    "lat": 50.308573,
    "lon": 15.254641
  },
  {
    "name": "Budětice",
    "kod": "555894",
    "okres": "Klatovy",
    "kod_okresu": "CZ0322",
    "kraj": "Plzeňský kraj",
    "kod_kraje": "CZ032",
    "psc": "34201",
    "lat": 49.283469,
    "lon": 13.58477
  },
  {
    "name": "Budětsko",
    "kod": "589349",
    "okres": "Prostějov",
    "kod_okresu": "CZ0713",
    "kraj": "Olomoucký kraj",
    "kod_kraje": "CZ071",
    "psc": "79852",
    "lat": 49.587129,
    "lon": 16.92698
  },
  {
    "name": "Bujanov",
    "kod": "545449",
    "okres": "Český Krumlov",
    "kod_okresu": "CZ0312",
    "kraj": "Jihočeský kraj",
    "kod_kraje": "CZ031",
    "psc": "38241",
    "lat": 48.702429,
    "lon": 14.429747
  },
  {
    "name": "Bujesily",
    "kod": "559741",
    "okres": "Rokycany",
    "kod_okresu": "CZ0326",
    "kraj": "Plzeňský kraj",
    "kod_kraje": "CZ032",
    "psc": "33141",
    "lat": 49.914681,
    "lon": 13.574492
  },
  {
    "name": "Buk",
    "kod": "537519",
    "okres": "Prachatice",
    "kod_okresu": "CZ0315",
    "kraj": "Jihočeský kraj",
    "kod_kraje": "CZ031",
    "psc": "38301",
    "lat": 49.038011,
    "lon": 13.845247
  },
  {
    "name": "Buk",
    "kod": "512826",
    "okres": "Přerov",
    "kod_okresu": "CZ0714",
    "kraj": "Olomoucký kraj",
    "kod_kraje": "CZ071",
    "psc": "75121",
    "lat": 49.504545,
    "lon": 17.468822
  },
  {
    "name": "Bukov",
    "kod": "595403",
    "okres": "Žďár nad Sázavou",
    "kod_okresu": "CZ0635",
    "kraj": "Kraj Vysočina",
    "kod_kraje": "CZ063",
    "psc": "59251",
    "lat": 49.454403,
    "lon": 16.223666
  },
  {
    "name": "Bukovany",
    "kod": "586072",
    "okres": "Hodonín",
    "kod_okresu": "CZ0645",
    "kraj": "Jihomoravský kraj",
    "kod_kraje": "CZ064",
    "psc": "69631",
    "lat": 49.042267,
    "lon": 17.100961
  },
  {
    "name": "Bukovany",
    "kod": "560316",
    "okres": "Sokolov",
    "kod_okresu": "CZ0413",
    "kraj": "Karlovarský kraj",
    "kod_kraje": "CZ041",
    "psc": "35755",
    "lat": 50.166437,
    "lon": 12.572766
  },
  {
    "name": "Bukovany",
    "kod": "552402",
    "okres": "Olomouc",
    "kod_okresu": "CZ0712",
    "kraj": "Olomoucký kraj",
    "kod_kraje": "CZ071",
    "psc": "77900",
    "lat": 49.60536,
    "lon": 17.343594
  },
  {
    "name": "Bukovany",
    "kod": "532924",
    "okres": "Benešov",
    "kod_okresu": "CZ0201",
    "kraj": "Středočeský kraj",
    "kod_kraje": "CZ020",
    "psc": "25741",
    "lat": 49.822898,
    "lon": 14.624388
  },
  {
    "name": "Bukovany",
    "kod": "564664",
    "okres": "Příbram",
    "kod_okresu": "CZ020B",
    "kraj": "Středočeský kraj",
    "kod_kraje": "CZ020",
    "psc": "26272",
    "lat": 49.574617,
    "lon": 14.10264
  },
  {
    "name": "Bukovec",
    "kod": "511935",
    "okres": "Frýdek-Místek",
    "kod_okresu": "CZ0802",
    "kraj": "Moravskoslezský kraj",
    "kod_kraje": "CZ080",
    "psc": "73984",
    "lat": 49.556686,
    "lon": 18.821553
  },
  {
    "name": "Bukovec",
    "kod": "553506",
    "okres": "Domažlice",
    "kod_okresu": "CZ0321",
    "kraj": "Plzeňský kraj",
    "kod_kraje": "CZ032",
    "psc": "34562",
    "lat": 49.586461,
    "lon": 12.995414
  },
  {
    "name": "Bukovice",
    "kod": "581437",
    "okres": "Brno-venkov",
    "kod_okresu": "CZ0643",
    "kraj": "Jihomoravský kraj",
    "kod_kraje": "CZ064",
    "psc": "67923",
    "lat": 49.406829,
    "lon": 16.489825
  },
  {
    "name": "Bukovice",
    "kod": "547751",
    "okres": "Náchod",
    "kod_okresu": "CZ0523",
    "kraj": "Královéhradecký kraj",
    "kod_kraje": "CZ052",
    "psc": "54954",
    "lat": 50.549647,
    "lon": 16.228038
  },
  {
    "name": "Bukovina",
    "kod": "581445",
    "okres": "Blansko",
    "kod_okresu": "CZ0641",
    "kraj": "Jihomoravský kraj",
    "kod_kraje": "CZ064",
    "psc": "67905",
    "lat": 49.297608,
    "lon": 16.773268
  },
  {
    "name": "Bukovina nad Labem",
    "kod": "574813",
    "okres": "Pardubice",
    "kod_okresu": "CZ0532",
    "kraj": "Pardubický kraj",
    "kod_kraje": "CZ053",
    "psc": "53352",
    "lat": 50.12496,
    "lon": 15.823385
  },
  {
    "name": "Bukovina u Přelouče",
    "kod": "574821",
    "okres": "Pardubice",
    "kod_okresu": "CZ0532",
    "kraj": "Pardubický kraj",
    "kod_kraje": "CZ053",
    "psc": "53501",
    "lat": 49.948338,
    "lon": 15.562977
  },
  {
    "name": "Bukovina u Čisté",
    "kod": "577031",
    "okres": "Semily",
    "kod_okresu": "CZ0514",
    "kraj": "Liberecký kraj",
    "kod_kraje": "CZ051",
    "psc": "51401",
    "lat": 50.542694,
    "lon": 15.58394
  },
  {
    "name": "Bukovinka",
    "kod": "581453",
    "okres": "Blansko",
    "kod_okresu": "CZ0641",
    "kraj": "Jihomoravský kraj",
    "kod_kraje": "CZ064",
    "psc": "67905",
    "lat": 49.294279,
    "lon": 16.805039
  },
  {
    "name": "Bukovka",
    "kod": "574830",
    "okres": "Pardubice",
    "kod_okresu": "CZ0532",
    "kraj": "Pardubický kraj",
    "kod_kraje": "CZ053",
    "psc": "53341",
    "lat": 50.101131,
    "lon": 15.625408
  },
  {
    "name": "Bukovno",
    "kod": "535605",
    "okres": "Mladá Boleslav",
    "kod_okresu": "CZ0207",
    "kraj": "Středočeský kraj",
    "kod_kraje": "CZ020",
    "psc": "29301",
    "lat": 50.446863,
    "lon": 14.840687
  },
  {
    "name": "Bukovník",
    "kod": "530085",
    "okres": "Klatovy",
    "kod_okresu": "CZ0322",
    "kraj": "Plzeňský kraj",
    "kod_kraje": "CZ032",
    "psc": "34201",
    "lat": 49.222588,
    "lon": 13.661427
  },
  {
    "name": "Buková",
    "kod": "589357",
    "okres": "Prostějov",
    "kod_okresu": "CZ0713",
    "kraj": "Olomoucký kraj",
    "kod_kraje": "CZ071",
    "psc": "79848",
    "lat": 49.509838,
    "lon": 16.829233
  },
  {
    "name": "Buková",
    "kod": "546372",
    "okres": "Plzeň-jih",
    "kod_okresu": "CZ0324",
    "kraj": "Plzeňský kraj",
    "kod_kraje": "CZ032",
    "psc": "33452",
    "lat": 49.537495,
    "lon": 13.158861
  },
  {
    "name": "Buková u Příbramě",
    "kod": "540021",
    "okres": "Příbram",
    "kod_okresu": "CZ020B",
    "kraj": "Středočeský kraj",
    "kod_kraje": "CZ020",
    "psc": "26223",
    "lat": 49.755238,
    "lon": 14.066683
  },
  {
    "name": "Bukvice",
    "kod": "573353",
    "okres": "Jičín",
    "kod_okresu": "CZ0522",
    "kraj": "Královéhradecký kraj",
    "kod_kraje": "CZ052",
    "psc": "50601",
    "lat": 50.412586,
    "lon": 15.294637
  },
  {
    "name": "Bulhary",
    "kod": "584380",
    "okres": "Břeclav",
    "kod_okresu": "CZ0644",
    "kraj": "Jihomoravský kraj",
    "kod_kraje": "CZ064",
    "psc": "69189",
    "lat": 48.831565,
    "lon": 16.748843
  },
  {
    "name": "Bulovka",
    "kod": "563935",
    "okres": "Liberec",
    "kod_okresu": "CZ0513",
    "kraj": "Liberecký kraj",
    "kod_kraje": "CZ051",
    "psc": "46401",
    "lat": 50.971244,
    "lon": 15.12367
  },
  {
    "name": "Butoves",
    "kod": "549282",
    "okres": "Jičín",
    "kod_okresu": "CZ0522",
    "kraj": "Královéhradecký kraj",
    "kod_kraje": "CZ052",
    "psc": "50601",
    "lat": 50.386551,
    "lon": 15.427515
  },
  {
    "name": "Buzice",
    "kod": "529966",
    "okres": "Strakonice",
    "kod_okresu": "CZ0316",
    "kraj": "Jihočeský kraj",
    "kod_kraje": "CZ031",
    "psc": "38801",
    "lat": 49.42273,
    "lon": 13.932715
  },
  {
    "name": "Bučina",
    "kod": "579963",
    "okres": "Ústí nad Orlicí",
    "kod_okresu": "CZ0534",
    "kraj": "Pardubický kraj",
    "kod_kraje": "CZ053",
    "psc": "56601",
    "lat": 49.896972,
    "lon": 16.192941
  },
  {
    "name": "Bučovice",
    "kod": "592943",
    "okres": "Vyškov",
    "kod_okresu": "CZ0646",
    "kraj": "Jihomoravský kraj",
    "kod_kraje": "CZ064",
    "psc": "68501",
    "lat": 49.149402,
    "lon": 17.003981
  },
  {
    "name": "Bučí",
    "kod": "558699",
    "okres": "Plzeň-sever",
    "kod_okresu": "CZ0325",
    "kraj": "Plzeňský kraj",
    "kod_kraje": "CZ032",
    "psc": "33152",
    "lat": 49.885275,
    "lon": 13.302879
  },
  {
    "name": "Buřenice",
    "kod": "561312",
    "okres": "Pelhřimov",
    "kod_okresu": "CZ0633",
    "kraj": "Kraj Vysočina",
    "kod_kraje": "CZ063",
    "psc": "39501",
    "lat": 49.552815,
    "lon": 15.066329
  },
  {
    "name": "Buš",
    "kod": "540048",
    "okres": "Praha-západ",
    "kod_okresu": "CZ020A",
    "kraj": "Středočeský kraj",
    "kod_kraje": "CZ020",
    "psc": "25208",
    "lat": 49.80341,
    "lon": 14.384043
  },
  {
    "name": "Bušanovice",
    "kod": "550159",
    "okres": "Prachatice",
    "kod_okresu": "CZ0315",
    "kraj": "Jihočeský kraj",
    "kod_kraje": "CZ031",
    "psc": "38422",
    "lat": 49.115542,
    "lon": 13.934788
  },
  {
    "name": "Bušovice",
    "kod": "559750",
    "okres": "Rokycany",
    "kod_okresu": "CZ0326",
    "kraj": "Plzeňský kraj",
    "kod_kraje": "CZ032",
    "psc": "33824",
    "lat": 49.795629,
    "lon": 13.534766
  },
  {
    "name": "Buštěhrad",
    "kod": "532169",
    "okres": "Kladno",
    "kod_okresu": "CZ0203",
    "kraj": "Středočeský kraj",
    "kod_kraje": "CZ020",
    "psc": "27343",
    "lat": 50.156043,
    "lon": 14.189083
  },
  {
    "name": "Bušín",
    "kod": "532894",
    "okres": "Šumperk",
    "kod_okresu": "CZ0715",
    "kraj": "Olomoucký kraj",
    "kod_kraje": "CZ071",
    "psc": "78962",
    "lat": 49.976227,
    "lon": 16.837978
  },
  {
    "name": "Bykoš",
    "kod": "534145",
    "okres": "Beroun",
    "kod_okresu": "CZ0202",
    "kraj": "Středočeský kraj",
    "kod_kraje": "CZ020",
    "psc": "26701",
    "lat": 49.883057,
    "lon": 14.063765
  },
  {
    "name": "Bylany",
    "kod": "571245",
    "okres": "Chrudim",
    "kod_okresu": "CZ0531",
    "kraj": "Pardubický kraj",
    "kod_kraje": "CZ053",
    "psc": "53801",
    "lat": 49.957375,
    "lon": 15.733261
  },
  {
    "name": "Bynovec",
    "kod": "544647",
    "okres": "Děčín",
    "kod_okresu": "CZ0421",
    "kraj": "Ústecký kraj",
    "kod_kraje": "CZ042",
    "psc": "40502",
    "lat": 50.820934,
    "lon": 14.264287
  },
  {
    "name": "Bystrovany",
    "kod": "547026",
    "okres": "Olomouc",
    "kod_okresu": "CZ0712",
    "kraj": "Olomoucký kraj",
    "kod_kraje": "CZ071",
    "psc": "77900",
    "lat": 49.597116,
    "lon": 17.323754
  },
  {
    "name": "Bystročice",
    "kod": "500879",
    "okres": "Olomouc",
    "kod_okresu": "CZ0712",
    "kraj": "Olomoucký kraj",
    "kod_kraje": "CZ071",
    "psc": "77900",
    "lat": 49.536347,
    "lon": 17.193626
  },
  {
    "name": "Bystrá",
    "kod": "561801",
    "okres": "Pelhřimov",
    "kod_okresu": "CZ0633",
    "kraj": "Kraj Vysočina",
    "kod_kraje": "CZ063",
    "psc": "39601",
    "lat": 49.50857,
    "lon": 15.371288
  },
  {
    "name": "Bystrá nad Jizerou",
    "kod": "577049",
    "okres": "Semily",
    "kod_okresu": "CZ0514",
    "kraj": "Liberecký kraj",
    "kod_kraje": "CZ051",
    "psc": "51301",
    "lat": 50.604834,
    "lon": 15.401976
  },
  {
    "name": "Bystré",
    "kod": "576166",
    "okres": "Rychnov nad Kněžnou",
    "kod_okresu": "CZ0524",
    "kraj": "Královéhradecký kraj",
    "kod_kraje": "CZ052",
    "psc": "51801",
    "lat": 50.321556,
    "lon": 16.255333
  },
  {
    "name": "Bystré",
    "kod": "577928",
    "okres": "Svitavy",
    "kod_okresu": "CZ0533",
    "kraj": "Pardubický kraj",
    "kod_kraje": "CZ053",
    "psc": "56992",
    "lat": 49.628557,
    "lon": 16.346893
  },
  {
    "name": "Bystřany",
    "kod": "567477",
    "okres": "Teplice",
    "kod_okresu": "CZ0426",
    "kraj": "Ústecký kraj",
    "kod_kraje": "CZ042",
    "psc": "41761",
    "lat": 50.628776,
    "lon": 13.8643
  },
  {
    "name": "Bystřec",
    "kod": "579971",
    "okres": "Ústí nad Orlicí",
    "kod_okresu": "CZ0534",
    "kraj": "Pardubický kraj",
    "kod_kraje": "CZ053",
    "psc": "56154",
    "lat": 50.011781,
    "lon": 16.619105
  },
  {
    "name": "Bystřice",
    "kod": "572772",
    "okres": "Jičín",
    "kod_okresu": "CZ0522",
    "kraj": "Královéhradecký kraj",
    "kod_kraje": "CZ052",
    "psc": "50723",
    "lat": 50.392983,
    "lon": 15.244218
  },
  {
    "name": "Bystřice",
    "kod": "598062",
    "okres": "Frýdek-Místek",
    "kod_okresu": "CZ0802",
    "kraj": "Moravskoslezský kraj",
    "kod_kraje": "CZ080",
    "psc": "73995",
    "lat": 49.63667,
    "lon": 18.720488
  },
  {
    "name": "Bystřice",
    "kod": "529451",
    "okres": "Benešov",
    "kod_okresu": "CZ0201",
    "kraj": "Středočeský kraj",
    "kod_kraje": "CZ020",
    "psc": "25751",
    "lat": 49.732235,
    "lon": 14.667506
  },
  {
    "name": "Bystřice nad Pernštejnem",
    "kod": "595411",
    "okres": "Žďár nad Sázavou",
    "kod_okresu": "CZ0635",
    "kraj": "Kraj Vysočina",
    "kod_kraje": "CZ063",
    "psc": "59301",
    "lat": 49.523046,
    "lon": 16.261571
  },
  {
    "name": "Bystřice pod Hostýnem",
    "kod": "588393",
    "okres": "Kroměříž",
    "kod_okresu": "CZ0721",
    "kraj": "Zlínský kraj",
    "kod_kraje": "CZ072",
    "psc": "76861",
    "lat": 49.399337,
    "lon": 17.674121
  },
  {
    "name": "Bystřice pod Lopeníkem",
    "kod": "592111",
    "okres": "Uherské Hradiště",
    "kod_okresu": "CZ0722",
    "kraj": "Zlínský kraj",
    "kod_kraje": "CZ072",
    "psc": "68755",
    "lat": 48.974921,
    "lon": 17.764159
  },
  {
    "name": "Bystřička",
    "kod": "541711",
    "okres": "Vsetín",
    "kod_okresu": "CZ0723",
    "kraj": "Zlínský kraj",
    "kod_kraje": "CZ072",
    "psc": "75624",
    "lat": 49.415411,
    "lon": 17.974099
  },
  {
    "name": "Byzhradec",
    "kod": "576174",
    "okres": "Rychnov nad Kněžnou",
    "kod_okresu": "CZ0524",
    "kraj": "Královéhradecký kraj",
    "kod_kraje": "CZ052",
    "psc": "51801",
    "lat": 50.215939,
    "lon": 16.1903
  },
  {
    "name": "Byšice",
    "kod": "534722",
    "okres": "Mělník",
    "kod_okresu": "CZ0206",
    "kraj": "Středočeský kraj",
    "kod_kraje": "CZ020",
    "psc": "27732",
    "lat": 50.310544,
    "lon": 14.61147
  },
  {
    "name": "Bzenec",
    "kod": "586081",
    "okres": "Hodonín",
    "kod_okresu": "CZ0645",
    "kraj": "Jihomoravský kraj",
    "kod_kraje": "CZ064",
    "psc": "69681",
    "lat": 48.973463,
    "lon": 17.266959
  },
  {
    "name": "Bzová",
    "kod": "531120",
    "okres": "Beroun",
    "kod_okresu": "CZ0202",
    "kraj": "Středočeský kraj",
    "kod_kraje": "CZ020",
    "psc": "26743",
    "lat": 49.897991,
    "lon": 13.862507
  },
  {
    "name": "Bácovice",
    "kod": "561118",
    "okres": "Pelhřimov",
    "kod_okresu": "CZ0633",
    "kraj": "Kraj Vysočina",
    "kod_kraje": "CZ063",
    "psc": "39301",
    "lat": 49.455771,
    "lon": 15.158118
  },
  {
    "name": "Bánov",
    "kod": "592021",
    "okres": "Uherské Hradiště",
    "kod_okresu": "CZ0722",
    "kraj": "Zlínský kraj",
    "kod_kraje": "CZ072",
    "psc": "68754",
    "lat": 48.988113,
    "lon": 17.717631
  },
  {
    "name": "Báňovice",
    "kod": "562726",
    "okres": "Jindřichův Hradec",
    "kod_okresu": "CZ0313",
    "kraj": "Jihočeský kraj",
    "kod_kraje": "CZ031",
    "psc": "38001",
    "lat": 49.011855,
    "lon": 15.49034
  },
  {
    "name": "Bílence",
    "kod": "562980",
    "okres": "Chomutov",
    "kod_okresu": "CZ0422",
    "kraj": "Ústecký kraj",
    "kod_kraje": "CZ042",
    "psc": "43001",
    "lat": 50.424657,
    "lon": 13.50601
  },
  {
    "name": "Bílichov",
    "kod": "535125",
    "okres": "Kladno",
    "kod_okresu": "CZ0203",
    "kraj": "Středočeský kraj",
    "kod_kraje": "CZ020",
    "psc": "27374",
    "lat": 50.262151,
    "lon": 13.916459
  },
  {
    "name": "Bílina",
    "kod": "567451",
    "okres": "Teplice",
    "kod_okresu": "CZ0426",
    "kraj": "Ústecký kraj",
    "kod_kraje": "CZ042",
    "psc": "41801",
    "lat": 50.548647,
    "lon": 13.775459
  },
  {
    "name": "Bílkovice",
    "kod": "530743",
    "okres": "Benešov",
    "kod_okresu": "CZ0201",
    "kraj": "Středočeský kraj",
    "kod_kraje": "CZ020",
    "psc": "25726",
    "lat": 49.759822,
    "lon": 14.861056
  },
  {
    "name": "Bílov",
    "kod": "546984",
    "okres": "Nový Jičín",
    "kod_okresu": "CZ0804",
    "kraj": "Moravskoslezský kraj",
    "kod_kraje": "CZ080",
    "psc": "74301",
    "lat": 49.73417,
    "lon": 18.001712
  },
  {
    "name": "Bílov",
    "kod": "530239",
    "okres": "Plzeň-sever",
    "kod_okresu": "CZ0325",
    "kraj": "Plzeňský kraj",
    "kod_kraje": "CZ032",
    "psc": "33141",
    "lat": 50.017964,
    "lon": 13.42495
  },
  {
    "name": "Bílovec",
    "kod": "599247",
    "okres": "Nový Jičín",
    "kod_okresu": "CZ0804",
    "kraj": "Moravskoslezský kraj",
    "kod_kraje": "CZ080",
    "psc": "74301",
    "lat": 49.756486,
    "lon": 18.015919
  },
  {
    "name": "Bílovice",
    "kod": "592030",
    "okres": "Uherské Hradiště",
    "kod_okresu": "CZ0722",
    "kraj": "Zlínský kraj",
    "kod_kraje": "CZ072",
    "psc": "68712",
    "lat": 49.099749,
    "lon": 17.549716
  },
  {
    "name": "Bílovice nad Svitavou",
    "kod": "582824",
    "okres": "Brno-venkov",
    "kod_okresu": "CZ0643",
    "kraj": "Jihomoravský kraj",
    "kod_kraje": "CZ064",
    "psc": "66401",
    "lat": 49.247178,
    "lon": 16.672575
  },
  {
    "name": "Bílovice-Lutotín",
    "kod": "589276",
    "okres": "Prostějov",
    "kod_okresu": "CZ0713",
    "kraj": "Olomoucký kraj",
    "kod_kraje": "CZ071",
    "psc": "79841",
    "lat": 49.511097,
    "lon": 17.043319
  },
  {
    "name": "Bílsko",
    "kod": "550833",
    "okres": "Strakonice",
    "kod_okresu": "CZ0316",
    "kraj": "Jihočeský kraj",
    "kod_kraje": "CZ031",
    "psc": "38773",
    "lat": 49.159145,
    "lon": 14.059108
  },
  {
    "name": "Bílsko",
    "kod": "552062",
    "okres": "Olomouc",
    "kod_okresu": "CZ0712",
    "kraj": "Olomoucký kraj",
    "kod_kraje": "CZ071",
    "psc": "78322",
    "lat": 49.644661,
    "lon": 17.019776
  },
  {
    "name": "Bílsko u Hořic",
    "kod": "548901",
    "okres": "Jičín",
    "kod_okresu": "CZ0522",
    "kraj": "Královéhradecký kraj",
    "kod_kraje": "CZ052",
    "psc": "50801",
    "lat": 50.369489,
    "lon": 15.600604
  },
  {
    "name": "Bílá",
    "kod": "563901",
    "okres": "Liberec",
    "kod_okresu": "CZ0513",
    "kraj": "Liberecký kraj",
    "kod_kraje": "CZ051",
    "psc": "46343",
    "lat": 50.664931,
    "lon": 15.035522
  },
  {
    "name": "Bílá",
    "kod": "598020",
    "okres": "Frýdek-Místek",
    "kod_okresu": "CZ0802",
    "kraj": "Moravskoslezský kraj",
    "kod_kraje": "CZ080",
    "psc": "73915",
    "lat": 49.442171,
    "lon": 18.453037
  },
  {
    "name": "Bílá Hlína",
    "kod": "565750",
    "okres": "Mladá Boleslav",
    "kod_okresu": "CZ0207",
    "kraj": "Středočeský kraj",
    "kod_kraje": "CZ020",
    "psc": "29501",
    "lat": 50.532604,
    "lon": 14.925357
  },
  {
    "name": "Bílá Lhota",
    "kod": "500623",
    "okres": "Olomouc",
    "kod_okresu": "CZ0712",
    "kraj": "Olomoucký kraj",
    "kod_kraje": "CZ071",
    "psc": "78321",
    "lat": 49.709629,
    "lon": 16.97518
  },
  {
    "name": "Bílá Třemešná",
    "kod": "579068",
    "okres": "Trutnov",
    "kod_okresu": "CZ0525",
    "kraj": "Královéhradecký kraj",
    "kod_kraje": "CZ052",
    "psc": "54472",
    "lat": 50.444749,
    "lon": 15.74112
  },
  {
    "name": "Bílá Voda",
    "kod": "525227",
    "okres": "Jeseník",
    "kod_okresu": "CZ0711",
    "kraj": "Olomoucký kraj",
    "kod_kraje": "CZ071",
    "psc": "79069",
    "lat": 50.442133,
    "lon": 16.916515
  },